[
  {
    "town": "Little Rissington",
    "stationReference": "1029TH",
    "riverName": "River Dikler",
    "catchmentName": "Cotswolds",
    "datumOffset": null,
    "dateOpened": "1994-01-01",
    "lat": 51.874767,
    "long": -1.740083
  },
  {
    "town": "Surfleet Seas End",
    "stationReference": "E2043",
    "riverName": "River Glen",
    "catchmentName": "Welland",
    "datumOffset": 2,
    "dateOpened": "1992-01-01",
    "lat": 52.845991,
    "long": -0.100848
  },
  {
    "town": "Kingsbury Episcopi",
    "stationReference": "52119",
    "riverName": "River Parrett",
    "catchmentName": "Parrett, Brue and West Somerset Streams",
    "datumOffset": 10,
    "dateOpened": "1997-01-01",
    "lat": 50.976043,
    "long": -2.793549
  },
  {
    "town": "Hemingford Grey",
    "stationReference": "E21136",
    "riverName": "River Great Ouse",
    "catchmentName": "Upper and Bedford Ouse",
    "datumOffset": 6.3,
    "dateOpened": "1996-10-01",
    "lat": 52.323618,
    "long": -0.101287
  },
  {
    "town": "Swindon",
    "stationReference": "2067",
    "riverName": "Smestow Brook",
    "catchmentName": "Worcestershire Middle Severn",
    "datumOffset": null,
    "dateOpened": "1976-04-06",
    "lat": 52.51274,
    "long": -2.205945
  },
  {
    "town": "Penryn",
    "stationReference": "48143",
    "riverName": "Praze Stream",
    "catchmentName": "Fal and St Austell Streams",
    "datumOffset": 13,
    "dateOpened": "2000-01-28",
    "lat": 50.172659,
    "long": -5.109416
  },
  {
    "town": "Bilsborrow",
    "stationReference": "720215",
    "riverName": "River Brock",
    "catchmentName": "Lune and Wyre",
    "datumOffset": null,
    "dateOpened": "1977-01-01",
    "lat": 53.858854,
    "long": -2.743276
  },
  {
    "town": "Netherside Hall",
    "stationReference": "F1906",
    "riverName": "River Wharfe",
    "catchmentName": "Wharfe and Lower Ouse",
    "datumOffset": null,
    "dateOpened": "2001-07-11",
    "lat": 54.080705,
    "long": -2.024779
  },
  {
    "town": "Ardingly",
    "stationReference": "E8266",
    "riverName": "River Ouse",
    "catchmentName": "Ouse",
    "datumOffset": null,
    "dateOpened": "1981-05-01",
    "lat": 51.038451,
    "long": -0.100268
  },
  {
    "town": "Letcombe Regis",
    "stationReference": "1771TH",
    "riverName": "Letcombe Brook",
    "catchmentName": "Vale of White Horse",
    "datumOffset": null,
    "dateOpened": "1991-01-01",
    "lat": 51.571482,
    "long": -1.449342
  },
  {
    "town": "Winterbourne",
    "stationReference": "531118",
    "riverName": "Bradley Brook",
    "catchmentName": "Bristol Avon Little Avon Axe and North Somerset St",
    "datumOffset": null,
    "dateOpened": "2009-07-24",
    "lat": 51.521892,
    "long": -2.521122
  },
  {
    "town": "Lovington",
    "stationReference": "52207",
    "riverName": "River Brue",
    "catchmentName": "Parrett, Brue and West Somerset Streams",
    "datumOffset": null,
    "dateOpened": "1964-10-01",
    "lat": 51.083697,
    "long": -2.586936
  },
  {
    "town": "Goulceby",
    "stationReference": "E1147",
    "riverName": "River Bain",
    "catchmentName": "Witham",
    "datumOffset": 0.02,
    "dateOpened": "1979-01-01",
    "lat": 53.296901,
    "long": -0.131922
  },
  {
    "town": "Lowestoft",
    "stationReference": "E70039",
    "riverName": "Tide",
    "catchmentName": "England - East Coast",
    "datumOffset": null,
    "dateOpened": "2012-01-19",
    "lat": 52.473075,
    "long": 1.750085
  },
  {
    "town": "Northern Moor",
    "stationReference": "693115",
    "riverName": "Baguley Brook",
    "catchmentName": "Upper Mersey",
    "datumOffset": null,
    "dateOpened": "2006-10-27",
    "lat": 53.407591,
    "long": -2.294665
  },
  {
    "town": "Manchester",
    "stationReference": "690611",
    "riverName": "River Irk",
    "catchmentName": "Northern Manchester",
    "datumOffset": null,
    "dateOpened": "1995-04-27",
    "lat": 53.493682,
    "long": -2.229815
  },
  {
    "town": "Haslingfield",
    "stationReference": "E21720",
    "riverName": "River Rhee",
    "catchmentName": "Cam and Ely Ouse (Including South Level)",
    "datumOffset": null,
    "dateOpened": "1980-04-15",
    "lat": 52.151539,
    "long": 0.067146
  },
  {
    "town": "Pinner",
    "stationReference": "2804TH",
    "riverName": "River Pinn",
    "catchmentName": "Pinn",
    "datumOffset": null,
    "dateOpened": "2000-01-01",
    "lat": 51.589297,
    "long": -0.381167
  },
  {
    "town": "Chineham",
    "stationReference": "2406TH",
    "riverName": "Petty's Brook",
    "catchmentName": "Loddon",
    "datumOffset": null,
    "dateOpened": "2006-01-01",
    "lat": 51.296962,
    "long": -1.056426
  },
  {
    "town": "Leagrave",
    "stationReference": "4615TH",
    "riverName": "River Lee",
    "catchmentName": "Upper Lee",
    "datumOffset": null,
    "dateOpened": "2000-01-01",
    "lat": 51.908463,
    "long": -0.46427
  },
  {
    "town": "Salisbury",
    "stationReference": "43165",
    "riverName": "River Avon",
    "catchmentName": "Hampshire Avon",
    "datumOffset": null,
    "dateOpened": "2008-10-20",
    "lat": 51.076527,
    "long": -1.803528
  },
  {
    "town": "Yeaton",
    "stationReference": "2020",
    "riverName": "River Perry",
    "catchmentName": "Shropshire Middle Severn",
    "datumOffset": null,
    "dateOpened": "1963-09-25",
    "lat": 52.76777,
    "long": -2.839715
  },
  {
    "town": "Kingston Upon Thames",
    "stationReference": "3400TH",
    "riverName": "River Thames",
    "catchmentName": "Thames from Hurley to Teddington",
    "datumOffset": null,
    "dateOpened": "1983-01-01",
    "lat": 51.415005,
    "long": -0.308869
  },
  {
    "town": "Addingham",
    "stationReference": "L1931",
    "riverName": "Town Beck",
    "catchmentName": "Wharfe and Lower Ouse",
    "datumOffset": null,
    "dateOpened": "2007-11-07",
    "lat": 53.944393,
    "long": -1.886441
  },
  {
    "town": "Litton Cheney",
    "stationReference": "44112",
    "riverName": "Litton Cheney Stream",
    "catchmentName": "West Dorset Streams",
    "datumOffset": null,
    "dateOpened": "1989-06-01",
    "lat": 50.710758,
    "long": -2.638832
  },
  {
    "town": "Redesmouth",
    "stationReference": "023008",
    "riverName": "River Rede",
    "catchmentName": "Tyne",
    "datumOffset": null,
    "dateOpened": "1968-01-01",
    "lat": 55.142955,
    "long": -2.208614
  },
  {
    "town": "Rochdale",
    "stationReference": "690203",
    "riverName": "River Roch",
    "catchmentName": "Northern Manchester",
    "datumOffset": null,
    "dateOpened": "1993-02-26",
    "lat": 53.611067,
    "long": -2.178685
  },
  {
    "town": "Elkesley",
    "stationReference": "4036",
    "riverName": "River Poulter",
    "catchmentName": "Idle and Torne",
    "datumOffset": null,
    "dateOpened": "1969-07-24",
    "lat": 53.26962,
    "long": -0.952008
  },
  {
    "town": "Harbertonford",
    "stationReference": "46128",
    "riverName": "River Harbourne",
    "catchmentName": "Teign Torbay and South Hams",
    "datumOffset": null,
    "dateOpened": "1997-01-01",
    "lat": 50.393426,
    "long": -3.73051
  },
  {
    "town": "Bragbury End",
    "stationReference": "4827TH",
    "riverName": "Stevenage Brook",
    "catchmentName": "Beane",
    "datumOffset": null,
    "dateOpened": "1973-01-01",
    "lat": 51.874477,
    "long": -0.149495
  },
  {
    "town": "Lugwardine",
    "stationReference": "055003_TG 316",
    "riverName": "River Lugg",
    "catchmentName": "Wye",
    "datumOffset": null,
    "dateOpened": "1970-01-01",
    "lat": 52.061919,
    "long": -2.659977
  },
  {
    "town": "Nun Appleton",
    "stationReference": "L2011",
    "riverName": "River Wharfe",
    "catchmentName": "Wharfe and Lower Ouse",
    "datumOffset": null,
    "dateOpened": "1996-03-31",
    "lat": 53.851542,
    "long": -1.15762
  },
  {
    "town": "Darfield",
    "stationReference": "L08015",
    "riverName": "River Dearne",
    "catchmentName": "Don and Rother",
    "datumOffset": null,
    "dateOpened": "2004-02-23",
    "lat": 53.536358,
    "long": -1.366253
  },
  {
    "town": "Stroud",
    "stationReference": "2206",
    "riverName": "Slad Brook",
    "catchmentName": "Severn Vale",
    "datumOffset": null,
    "dateOpened": "2009-04-07",
    "lat": 51.746918,
    "long": -2.217953
  },
  {
    "town": "Great Glen",
    "stationReference": "4161",
    "riverName": "River Sence",
    "catchmentName": "Soar",
    "datumOffset": null,
    "dateOpened": "2001-12-17",
    "lat": 52.574167,
    "long": -1.035067
  },
  {
    "town": "Prestbury",
    "stationReference": "693426",
    "riverName": "River Bollin",
    "catchmentName": "Upper Mersey",
    "datumOffset": null,
    "dateOpened": "2008-03-21",
    "lat": 53.289231,
    "long": -2.148611
  },
  {
    "town": "Avonmouth",
    "stationReference": "E72639",
    "riverName": "Tide",
    "catchmentName": "England - South Coast",
    "datumOffset": null,
    "dateOpened": "2012-02-24",
    "lat": 51.49999,
    "long": -2.728468
  },
  {
    "town": "Victoria Bridge, Kendal",
    "stationReference": "730506",
    "riverName": "River Kent",
    "catchmentName": "South Cumbria",
    "datumOffset": null,
    "dateOpened": "2010-02-23",
    "lat": 54.330571,
    "long": -2.742287
  },
  {
    "town": "Bitton",
    "stationReference": "53131",
    "riverName": "River Boyd",
    "catchmentName": "Bristol Avon Little Avon Axe and North Somerset St",
    "datumOffset": null,
    "dateOpened": "1987-02-05",
    "lat": 51.426965,
    "long": -2.459703
  },
  {
    "town": "Wimborne Minster",
    "stationReference": "43216",
    "riverName": "River Allen",
    "catchmentName": "Dorset Stour",
    "datumOffset": null,
    "dateOpened": "1974-11-01",
    "lat": 50.805852,
    "long": -1.990007
  },
  {
    "town": "Dawlish",
    "stationReference": "45171",
    "riverName": "Dawlish Water",
    "catchmentName": "Exe",
    "datumOffset": null,
    "dateOpened": "2012-08-30",
    "lat": 50.580497,
    "long": -3.472207
  },
  {
    "town": "Sudbury",
    "stationReference": "4124",
    "riverName": "River Dove",
    "catchmentName": "Dove",
    "datumOffset": null,
    "dateOpened": "2000-10-19",
    "lat": 52.877141,
    "long": -1.759128
  },
  {
    "town": "Claypole",
    "stationReference": "E2901",
    "riverName": "River Witham",
    "catchmentName": "Witham",
    "datumOffset": 0.07,
    "dateOpened": "1979-01-01",
    "lat": 53.022669,
    "long": -0.746145
  },
  {
    "town": "Little Alne",
    "stationReference": "2095",
    "riverName": "River Alne",
    "catchmentName": "Warwickshire Avon",
    "datumOffset": null,
    "dateOpened": "1995-12-15",
    "lat": 52.247533,
    "long": -1.793996
  },
  {
    "town": "Alwinton",
    "stationReference": "022014",
    "riverName": "River Coquet",
    "catchmentName": "Northumberland Rivers",
    "datumOffset": null,
    "dateOpened": "2000-01-01",
    "lat": 55.344803,
    "long": -2.122952
  },
  {
    "town": "Heacham",
    "stationReference": "E21127",
    "riverName": "Heacham River",
    "catchmentName": "North West Norfolk",
    "datumOffset": null,
    "dateOpened": "1994-05-01",
    "lat": 52.908305,
    "long": 0.504442
  },
  {
    "town": "Rewe",
    "stationReference": "45134",
    "riverName": "River Culm",
    "catchmentName": "Exe",
    "datumOffset": null,
    "dateOpened": "1997-01-01",
    "lat": 50.782406,
    "long": -3.496159
  },
  {
    "town": "Kirkburton",
    "stationReference": "L1115",
    "riverName": "Dean Bottom Beck",
    "catchmentName": "Aire and Calder",
    "datumOffset": null,
    "dateOpened": "2009-02-24",
    "lat": 53.60958,
    "long": -1.705229
  },
  {
    "town": "Brigg",
    "stationReference": "E2790",
    "riverName": "River Ancholme",
    "catchmentName": "Grimsby and Ancholme",
    "datumOffset": 0.12,
    "dateOpened": "1987-01-01",
    "lat": 53.550068,
    "long": -0.501979
  },
  {
    "town": "North America",
    "stationReference": "L3404",
    "riverName": "Market Weighton Canal",
    "catchmentName": "Hull and East Riding",
    "datumOffset": null,
    "dateOpened": "1998-03-17",
    "lat": 53.77033,
    "long": -0.707786
  },
  {
    "town": "Romanby",
    "stationReference": "L2322",
    "riverName": "Willow Beck",
    "catchmentName": "Swale, Ure, Nidd and Upper Ouse",
    "datumOffset": null,
    "dateOpened": "2006-04-10",
    "lat": 54.336432,
    "long": -1.450586
  },
  {
    "town": "Hungerford",
    "stationReference": "2241TH",
    "riverName": "River Shalbourne",
    "catchmentName": "Vale of White Horse",
    "datumOffset": null,
    "dateOpened": "1996-01-01",
    "lat": 51.412847,
    "long": -1.526019
  },
  {
    "town": "Temple Sowerby",
    "stationReference": "760502",
    "riverName": "River Eden",
    "catchmentName": "Eden and Esk",
    "datumOffset": null,
    "dateOpened": "1966-03-04",
    "lat": 54.648336,
    "long": -2.614388
  },
  {
    "town": "Colden Common",
    "stationReference": "E12442",
    "riverName": "River Itchen",
    "catchmentName": "Test and Itchen",
    "datumOffset": null,
    "dateOpened": "1980-01-01",
    "lat": 50.990287,
    "long": -1.335564
  },
  {
    "town": "Walthamstow",
    "stationReference": "5380TH",
    "riverName": "River Lee",
    "catchmentName": "Lower Lee",
    "datumOffset": null,
    "dateOpened": "1981-01-01",
    "lat": 51.574894,
    "long": -0.043637
  },
  {
    "town": "Carlisle",
    "stationReference": "765045",
    "riverName": "River Caldew",
    "catchmentName": "Eden and Esk",
    "datumOffset": null,
    "dateOpened": "1999-01-01",
    "lat": 54.885739,
    "long": -2.937513
  },
  {
    "town": "Sinnington",
    "stationReference": "L2545",
    "riverName": "River Seven",
    "catchmentName": "Derwent",
    "datumOffset": null,
    "dateOpened": "2001-09-24",
    "lat": 54.262449,
    "long": -0.859287
  },
  {
    "town": "Worsbrough",
    "stationReference": "F0815",
    "riverName": "River Dove",
    "catchmentName": "Don and Rother",
    "datumOffset": null,
    "dateOpened": "1998-08-12",
    "lat": 53.526193,
    "long": -1.473913
  },
  {
    "town": "Hall Dunnerdale",
    "stationReference": "740101",
    "riverName": "River Duddon",
    "catchmentName": "South Cumbria",
    "datumOffset": null,
    "dateOpened": "1972-01-01",
    "lat": 54.341859,
    "long": -3.218047
  },
  {
    "town": "Sleaford",
    "stationReference": "E4411",
    "riverName": "River Slea",
    "catchmentName": "Witham",
    "datumOffset": 13.35,
    "dateOpened": "1999-01-01",
    "lat": 52.998853,
    "long": -0.408576
  },
  {
    "town": "Bristol Harbour Passage Street",
    "stationReference": "531109",
    "riverName": "Bristol Frome",
    "catchmentName": "Bristol Avon Little Avon Axe and North Somerset St",
    "datumOffset": null,
    "dateOpened": "2011-05-11",
    "lat": 51.45411,
    "long": -2.586653
  },
  {
    "town": "Copley",
    "stationReference": "L1203",
    "riverName": "River Calder",
    "catchmentName": "Aire and Calder",
    "datumOffset": null,
    "dateOpened": "2002-12-03",
    "lat": 53.697959,
    "long": -1.873488
  },
  {
    "town": "Denham",
    "stationReference": "2870TH",
    "riverName": "River Colne",
    "catchmentName": "Colne (Lower)",
    "datumOffset": null,
    "dateOpened": "1986-01-01",
    "lat": 51.56631,
    "long": -0.483905
  },
  {
    "town": "Lenton",
    "stationReference": "4435",
    "riverName": "River Leen",
    "catchmentName": "Lower Trent and Erewash",
    "datumOffset": null,
    "dateOpened": "1972-12-01",
    "lat": 52.948176,
    "long": -1.183337
  },
  {
    "town": "Worcester",
    "stationReference": "2642",
    "riverName": "River Severn",
    "catchmentName": "Worcestershire Middle Severn",
    "datumOffset": null,
    "dateOpened": "2005-11-04",
    "lat": 52.206967,
    "long": -2.235272
  },
  {
    "town": "Allendale Town",
    "stationReference": "023036",
    "riverName": "River East Allen",
    "catchmentName": "Tyne",
    "datumOffset": null,
    "dateOpened": "2000-01-01",
    "lat": 54.904713,
    "long": -2.265082
  },
  {
    "town": "Scotter",
    "stationReference": "4064",
    "riverName": "River Eau",
    "catchmentName": "Lower Trent and Erewash",
    "datumOffset": null,
    "dateOpened": "2011-03-18",
    "lat": 53.498488,
    "long": -0.664311
  },
  {
    "town": "Eamont Bridge",
    "stationReference": "761659",
    "riverName": "River Eamont",
    "catchmentName": "Eden and Esk",
    "datumOffset": null,
    "dateOpened": "1998-01-01",
    "lat": 54.651055,
    "long": -2.743236
  },
  {
    "town": "Salwarpe",
    "stationReference": "2011",
    "riverName": "River Salwarpe",
    "catchmentName": "Worcestershire Middle Severn",
    "datumOffset": null,
    "dateOpened": "1960-12-19",
    "lat": 52.255374,
    "long": -2.193909
  },
  {
    "town": "Mitchell Wyke Ferry Bay",
    "stationReference": "735225",
    "riverName": "Windermere",
    "catchmentName": "South Cumbria",
    "datumOffset": null,
    "dateOpened": "1968-02-01",
    "lat": 54.352722,
    "long": -2.940028
  },
  {
    "town": "Kirk Hammerton",
    "stationReference": "F2102",
    "riverName": "River Nidd",
    "catchmentName": "Swale, Ure, Nidd and Upper Ouse",
    "datumOffset": null,
    "dateOpened": "1979-05-01",
    "lat": 53.998678,
    "long": -1.266199
  },
  {
    "town": "St Michael's On Wyre",
    "stationReference": "720517",
    "riverName": "River Wyre",
    "catchmentName": "Lune and Wyre",
    "datumOffset": null,
    "dateOpened": "1976-01-01",
    "lat": 53.863761,
    "long": -2.817872
  },
  {
    "town": "Chingford",
    "stationReference": "5376TH",
    "riverName": "Ching Brook",
    "catchmentName": "Lower Lee",
    "datumOffset": null,
    "dateOpened": "2009-08-06",
    "lat": 51.619051,
    "long": 0.008836
  },
  {
    "town": "Neatishead",
    "stationReference": "E21563",
    "riverName": "River Ant",
    "catchmentName": "Broadland Rivers",
    "datumOffset": null,
    "dateOpened": "1982-01-10",
    "lat": 52.735281,
    "long": 1.480458
  },
  {
    "town": "Bridge Trafford",
    "stationReference": "684027",
    "riverName": "River Gowy",
    "catchmentName": "Lower Mersey",
    "datumOffset": null,
    "dateOpened": "1979-08-24",
    "lat": 53.234132,
    "long": -2.827991
  },
  {
    "town": "Loddiswell",
    "stationReference": "46119",
    "riverName": "River Avon",
    "catchmentName": "Teign Torbay and South Hams",
    "datumOffset": null,
    "dateOpened": "1971-02-28",
    "lat": 50.31395,
    "long": -3.800717
  },
  {
    "town": "Scayne's Hill",
    "stationReference": "E8210",
    "riverName": "River Ouse",
    "catchmentName": "Ouse",
    "datumOffset": 20.366,
    "dateOpened": "2000-06-01",
    "lat": 51.002867,
    "long": -0.027718
  },
  {
    "town": "Killamarsh",
    "stationReference": "L0307",
    "riverName": "River Rother",
    "catchmentName": "Don and Rother",
    "datumOffset": null,
    "dateOpened": "2000-04-17",
    "lat": 53.326718,
    "long": -1.328824
  },
  {
    "town": "Staines",
    "stationReference": "2896TH",
    "riverName": "Wraysbury River",
    "catchmentName": "Colne (Lower)",
    "datumOffset": null,
    "dateOpened": "1993-01-01",
    "lat": 51.43615,
    "long": -0.514892
  },
  {
    "town": "Filgrave",
    "stationReference": "E60601",
    "riverName": "River Great Ouse",
    "catchmentName": "Upper and Bedford Ouse",
    "datumOffset": 49.1,
    "dateOpened": "1993-03-01",
    "lat": 52.129553,
    "long": -0.753104
  },
  {
    "town": "Trowbridge",
    "stationReference": "53122",
    "riverName": "River Biss",
    "catchmentName": "Bristol Avon Little Avon Axe and North Somerset St",
    "datumOffset": null,
    "dateOpened": "1984-01-20",
    "lat": 51.31742,
    "long": -2.206553
  },
  {
    "town": "Alton",
    "stationReference": "3015TH",
    "riverName": "Caker Stream",
    "catchmentName": "Wey",
    "datumOffset": null,
    "dateOpened": "1981-04-07",
    "lat": 51.140148,
    "long": -0.959908
  },
  {
    "town": "Aldington",
    "stationReference": "E4351",
    "riverName": "East Stour Trib  Great Stour",
    "catchmentName": "Stour",
    "datumOffset": 45.42,
    "dateOpened": "2007-02-18",
    "lat": 51.105167,
    "long": 0.948046
  },
  {
    "town": "Abingdon",
    "stationReference": "1681TH",
    "riverName": "Radley Park Ditch",
    "catchmentName": "Vale of White Horse",
    "datumOffset": null,
    "dateOpened": "2012-03-22",
    "lat": 51.683092,
    "long": -1.268125
  },
  {
    "town": "Milton On Stour",
    "stationReference": "43207",
    "riverName": "Shreen Water",
    "catchmentName": "Dorset Stour",
    "datumOffset": null,
    "dateOpened": "1973-12-01",
    "lat": 51.049578,
    "long": -2.276018
  },
  {
    "town": "Mansfield",
    "stationReference": "4115",
    "riverName": "River Maun",
    "catchmentName": "Idle and Torne",
    "datumOffset": null,
    "dateOpened": "1992-05-01",
    "lat": 53.166753,
    "long": -1.164236
  },
  {
    "town": "Broadclyst",
    "stationReference": "45162",
    "riverName": "River Clyst",
    "catchmentName": "Exe",
    "datumOffset": null,
    "dateOpened": "2007-12-05",
    "lat": 50.752006,
    "long": -3.454461
  },
  {
    "town": "Bransford",
    "stationReference": "2086",
    "riverName": "River Teme",
    "catchmentName": "Teme",
    "datumOffset": null,
    "dateOpened": "1993-03-17",
    "lat": 52.177055,
    "long": -2.28833
  },
  {
    "town": "Dodford",
    "stationReference": "E2285",
    "riverName": "River Nene",
    "catchmentName": "Nene",
    "datumOffset": 0.07,
    "dateOpened": "1979-01-01",
    "lat": 52.240918,
    "long": -1.083171
  },
  {
    "town": "Queenborough",
    "stationReference": "E2900",
    "riverName": "River Medway",
    "catchmentName": "Swale",
    "datumOffset": null,
    "dateOpened": "1992-03-10",
    "lat": 51.415798,
    "long": 0.742491
  },
  {
    "town": "Winchester",
    "stationReference": "E12470",
    "riverName": "River Itchen",
    "catchmentName": "Test and Itchen",
    "datumOffset": 33.292,
    "dateOpened": "2001-01-01",
    "lat": 51.0582,
    "long": -1.308338
  },
  {
    "town": "St Erth",
    "stationReference": "48125",
    "riverName": "River Hayle",
    "catchmentName": "West Cornwall",
    "datumOffset": null,
    "dateOpened": "1968-01-03",
    "lat": 50.156881,
    "long": -5.432918
  },
  {
    "town": "Thirsk",
    "stationReference": "L2313",
    "riverName": "Cod Beck",
    "catchmentName": "Swale, Ure, Nidd and Upper Ouse",
    "datumOffset": null,
    "dateOpened": "2007-06-29",
    "lat": 54.235258,
    "long": -1.341973
  },
  {
    "town": "Castleton",
    "stationReference": "L2907",
    "riverName": "River Esk",
    "catchmentName": "Esk and Coast",
    "datumOffset": null,
    "dateOpened": "1998-10-12",
    "lat": 54.466168,
    "long": -0.944968
  },
  {
    "town": "Bredbury",
    "stationReference": "692423",
    "riverName": "River Tame",
    "catchmentName": "Upper Mersey",
    "datumOffset": null,
    "dateOpened": "1969-12-30",
    "lat": 53.42353,
    "long": -2.141405
  },
  {
    "town": "Ilfracombe",
    "stationReference": "50197",
    "riverName": "East Wilder Brook",
    "catchmentName": "Taw and North Devon Streams",
    "datumOffset": null,
    "dateOpened": "2008-05-07",
    "lat": 51.196412,
    "long": -4.120133
  },
  {
    "town": "Newburgh",
    "stationReference": "700306",
    "riverName": "River Douglas",
    "catchmentName": "Ribble Douglas and Crossens",
    "datumOffset": null,
    "dateOpened": "1972-01-01",
    "lat": 53.607043,
    "long": -2.793103
  },
  {
    "town": "Bulwell",
    "stationReference": "4203",
    "riverName": "River Leen",
    "catchmentName": "Lower Trent and Erewash",
    "datumOffset": null,
    "dateOpened": "2004-05-20",
    "lat": 53.009557,
    "long": -1.190048
  },
  {
    "town": "Hebden Bridge",
    "stationReference": "L1231",
    "riverName": "Hebden Water",
    "catchmentName": "Aire and Calder",
    "datumOffset": null,
    "dateOpened": "2000-08-13",
    "lat": 53.744763,
    "long": -2.010569
  },
  {
    "town": "Haydon Wick",
    "stationReference": "0319TH",
    "riverName": "River Ray",
    "catchmentName": "Vale of White Horse",
    "datumOffset": null,
    "dateOpened": "1997-01-01",
    "lat": 51.571821,
    "long": -1.816698
  },
  {
    "town": "Edgware",
    "stationReference": "3826TH",
    "riverName": "Silk Stream",
    "catchmentName": "Brent (Brooks)",
    "datumOffset": null,
    "dateOpened": "2000-01-01",
    "lat": 51.607093,
    "long": -0.271414
  },
  {
    "town": "Sawbridgeworth",
    "stationReference": "5151TH",
    "riverName": "River Stort",
    "catchmentName": "Stort",
    "datumOffset": null,
    "dateOpened": "2002-01-01",
    "lat": 51.812151,
    "long": 0.158674
  },
  {
    "town": "Witham Friary",
    "stationReference": "53197",
    "riverName": "Somerset Frome",
    "catchmentName": "Bristol Avon Little Avon Axe and North Somerset St",
    "datumOffset": null,
    "dateOpened": "2005-01-01",
    "lat": 51.169425,
    "long": -2.364153
  },
  {
    "town": "Stanstead",
    "stationReference": "E22548",
    "riverName": "River Glem",
    "catchmentName": "Essex",
    "datumOffset": null,
    "dateOpened": "1979-10-01",
    "lat": 52.09308,
    "long": 0.693213
  },
  {
    "town": "Bridge End",
    "stationReference": "E1662",
    "riverName": "South Forty Foot Drain",
    "catchmentName": "Witham",
    "datumOffset": -0.59,
    "dateOpened": "1995-01-01",
    "lat": 52.90501,
    "long": -0.255888
  },
  {
    "town": "Gloucester",
    "stationReference": "2670",
    "riverName": "River Twyver",
    "catchmentName": "Severn Vale",
    "datumOffset": null,
    "dateOpened": "2008-11-05",
    "lat": 51.848419,
    "long": -2.217412
  },
  {
    "town": "Chartham",
    "stationReference": "E3951",
    "riverName": "Great Stour",
    "catchmentName": "Stour",
    "datumOffset": null,
    "dateOpened": "1967-01-01",
    "lat": 51.257785,
    "long": 1.030079
  },
  {
    "town": "Barnsley",
    "stationReference": "F0806",
    "riverName": "River Dearne",
    "catchmentName": "Don and Rother",
    "datumOffset": null,
    "dateOpened": "1960-03-01",
    "lat": 53.560696,
    "long": -1.473078
  },
  {
    "town": "Kingsnorth",
    "stationReference": "E4402",
    "riverName": "White Water Dyke",
    "catchmentName": "Stour",
    "datumOffset": 35.535,
    "dateOpened": "2003-01-01",
    "lat": 51.121217,
    "long": 0.85627
  },
  {
    "town": "Catford",
    "stationReference": "4369TH",
    "riverName": "River Pool",
    "catchmentName": "London",
    "datumOffset": null,
    "dateOpened": "1984-01-01",
    "lat": 51.435695,
    "long": -0.027404
  },
  {
    "town": "East Budleigh",
    "stationReference": "45213",
    "riverName": "Budleigh Brook",
    "catchmentName": "Otter, Sid, Axe and Lim",
    "datumOffset": 10,
    "dateOpened": "1998-01-01",
    "lat": 50.652217,
    "long": -3.320001
  },
  {
    "town": "Oulton Broad",
    "stationReference": "E24823",
    "riverName": "River Waveney",
    "catchmentName": "Broadland Rivers",
    "datumOffset": null,
    "dateOpened": "2001-02-14",
    "lat": 52.474903,
    "long": 1.71041
  },
  {
    "town": "Washford",
    "stationReference": "51107",
    "riverName": "Washford River",
    "catchmentName": "Parrett, Brue and West Somerset Streams",
    "datumOffset": null,
    "dateOpened": "1966-11-01",
    "lat": 51.14633,
    "long": -3.373795
  },
  {
    "town": "Beaminster",
    "stationReference": "44131",
    "riverName": "River Brit",
    "catchmentName": "West Dorset Streams",
    "datumOffset": null,
    "dateOpened": "2005-01-01",
    "lat": 50.807196,
    "long": -2.739279
  },
  {
    "town": "Abingdon",
    "stationReference": "1790TH",
    "riverName": "River Ock",
    "catchmentName": "Vale of White Horse",
    "datumOffset": null,
    "dateOpened": "1978-01-01",
    "lat": 51.666656,
    "long": -1.305189
  },
  {
    "town": "Haltwhistle",
    "stationReference": "023027",
    "riverName": "River Tyne",
    "catchmentName": "Tyne",
    "datumOffset": null,
    "dateOpened": "2000-02-11",
    "lat": 54.967781,
    "long": -2.460104
  },
  {
    "town": "Bridge Rule",
    "stationReference": "47131",
    "riverName": "River Tamar",
    "catchmentName": "Tamar",
    "datumOffset": null,
    "dateOpened": "2010-06-01",
    "lat": 50.799229,
    "long": -4.450269
  },
  {
    "town": "Windley",
    "stationReference": "4055",
    "riverName": "River Ecclesbourne",
    "catchmentName": "Derbyshire Derwent",
    "datumOffset": null,
    "dateOpened": "1971-09-01",
    "lat": 52.998306,
    "long": -1.525391
  },
  {
    "town": "New Alresford",
    "stationReference": "E12781",
    "riverName": "Cheriton Stream",
    "catchmentName": "Test and Itchen",
    "datumOffset": null,
    "dateOpened": "1978-01-01",
    "lat": 51.086429,
    "long": -1.181847
  },
  {
    "town": "Evesham",
    "stationReference": "2002",
    "riverName": "River Avon",
    "catchmentName": "Warwickshire Avon",
    "datumOffset": null,
    "dateOpened": "1936-12-01",
    "lat": 52.092165,
    "long": -1.942876
  },
  {
    "town": "Butts Bridge",
    "stationReference": "055021_TG 305",
    "riverName": "River Lugg",
    "catchmentName": "Wye",
    "datumOffset": null,
    "dateOpened": "1970-07-02",
    "lat": 52.226571,
    "long": -2.730348
  },
  {
    "town": "Gloucester",
    "stationReference": "2262",
    "riverName": "Horsbere Brook",
    "catchmentName": "Severn Vale",
    "datumOffset": null,
    "dateOpened": "2012-03-02",
    "lat": 51.868695,
    "long": -2.195623
  },
  {
    "town": "Evedon",
    "stationReference": "E1750",
    "riverName": "River Slea",
    "catchmentName": "Witham",
    "datumOffset": null,
    "dateOpened": "1979-01-01",
    "lat": 53.022732,
    "long": -0.379369
  },
  {
    "town": "Cockfield",
    "stationReference": "E21058",
    "riverName": "River Brett",
    "catchmentName": "Essex",
    "datumOffset": null,
    "dateOpened": "1979-10-01",
    "lat": 52.135453,
    "long": 0.794489
  },
  {
    "town": "Beetham",
    "stationReference": "731013",
    "riverName": "River Bela",
    "catchmentName": "South Cumbria",
    "datumOffset": null,
    "dateOpened": "1976-01-01",
    "lat": 54.218531,
    "long": -2.774107
  },
  {
    "town": "Crookham Village",
    "stationReference": "2455TH",
    "riverName": "River Hart",
    "catchmentName": "Loddon",
    "datumOffset": null,
    "dateOpened": "2004-01-01",
    "lat": 51.262934,
    "long": -0.867562
  },
  {
    "town": "Rolleston On Dove",
    "stationReference": "4018",
    "riverName": "River Dove",
    "catchmentName": "Dove",
    "datumOffset": null,
    "dateOpened": "1961-07-28",
    "lat": 52.855534,
    "long": -1.648727
  },
  {
    "town": "Brendon",
    "stationReference": "50150",
    "riverName": "East Lyn River",
    "catchmentName": "Taw and North Devon Streams",
    "datumOffset": null,
    "dateOpened": "1997-01-01",
    "lat": 51.219143,
    "long": -3.751991
  },
  {
    "town": "Evenlode",
    "stationReference": "1210TH",
    "riverName": "River Evenlode",
    "catchmentName": "Cotswolds",
    "datumOffset": null,
    "dateOpened": "2001-01-01",
    "lat": 51.95095,
    "long": -1.679842
  },
  {
    "town": "Gloucester",
    "stationReference": "2225",
    "riverName": "Daniels Brook",
    "catchmentName": "Severn Vale",
    "datumOffset": null,
    "dateOpened": "2010-01-27",
    "lat": 51.832287,
    "long": -2.270144
  },
  {
    "town": "Bray",
    "stationReference": "2607TH",
    "riverName": "River Thames",
    "catchmentName": "Thames from Hurley to Teddington",
    "datumOffset": null,
    "dateOpened": "1997-01-01",
    "lat": 51.509305,
    "long": -0.69032
  },
  {
    "town": "Beacon End",
    "stationReference": "E22761",
    "riverName": "River Colne",
    "catchmentName": "Essex",
    "datumOffset": null,
    "dateOpened": "1979-10-01",
    "lat": 51.89895,
    "long": 0.851031
  },
  {
    "town": "Farnworth",
    "stationReference": "690408",
    "riverName": "River Croal",
    "catchmentName": "Northern Manchester",
    "datumOffset": null,
    "dateOpened": "1976-06-29",
    "lat": 53.557357,
    "long": -2.388815
  },
  {
    "town": "North Wootton",
    "stationReference": "E21183",
    "riverName": "River Wallington",
    "catchmentName": "North West Norfolk",
    "datumOffset": null,
    "dateOpened": "1988-05-17",
    "lat": 51.898975,
    "long": 0.358984
  },
  {
    "town": "Leek",
    "stationReference": "4143",
    "riverName": "River Churnet",
    "catchmentName": "Dove",
    "datumOffset": null,
    "dateOpened": "1999-05-05",
    "lat": 53.1201,
    "long": -2.012802
  },
  {
    "town": "Cononley",
    "stationReference": "L1505",
    "riverName": "River Aire",
    "catchmentName": "Aire and Calder",
    "datumOffset": null,
    "dateOpened": "2000-09-01",
    "lat": 53.918229,
    "long": -2.006046
  },
  {
    "town": "Waltham Abbey",
    "stationReference": "5329TH",
    "riverName": "Cobbins Brook",
    "catchmentName": "Lower Lee",
    "datumOffset": null,
    "dateOpened": "1981-01-01",
    "lat": 51.681471,
    "long": 0.004958
  },
  {
    "town": "St Blazey",
    "stationReference": "48190",
    "riverName": "St Blazey Stream",
    "catchmentName": "Fal and St Austell Streams",
    "datumOffset": null,
    "dateOpened": "2010-01-01",
    "lat": 50.361418,
    "long": -4.715659
  },
  {
    "town": "Stamford",
    "stationReference": "E2647",
    "riverName": "River Welland",
    "catchmentName": "Welland",
    "datumOffset": 20,
    "dateOpened": "1992-01-01",
    "lat": 52.654318,
    "long": -0.461033
  },
  {
    "town": "Sheerness",
    "stationReference": "E71539",
    "riverName": "Tide",
    "catchmentName": "England - East Coast",
    "datumOffset": null,
    "dateOpened": "2012-01-31",
    "lat": 51.445627,
    "long": 0.743415
  },
  {
    "town": "St Ives",
    "stationReference": "E24267",
    "riverName": "River Great Ouse",
    "catchmentName": "Upper and Bedford Ouse",
    "datumOffset": 5,
    "dateOpened": "1986-04-22",
    "lat": 52.317315,
    "long": -0.072946
  },
  {
    "town": "Shrewsbury",
    "stationReference": "2077",
    "riverName": "River Severn",
    "catchmentName": "Severn Uplands",
    "datumOffset": null,
    "dateOpened": "1985-12-27",
    "lat": 52.709797,
    "long": -2.75808
  },
  {
    "town": "Navestock Heath",
    "stationReference": "5442TH",
    "riverName": "River Roding",
    "catchmentName": "Rodding",
    "datumOffset": null,
    "dateOpened": "2004-01-01",
    "lat": 51.661693,
    "long": 0.209122
  },
  {
    "town": "Threlkeld",
    "stationReference": "750504",
    "riverName": "River Glenderamackin",
    "catchmentName": "Derwent West Cumbria and Duddon",
    "datumOffset": null,
    "dateOpened": "1975-01-01",
    "lat": 54.613784,
    "long": -3.050496
  },
  {
    "town": "Colney Street",
    "stationReference": "2819TH",
    "riverName": "River Ver",
    "catchmentName": "Colne (Upper)",
    "datumOffset": null,
    "dateOpened": "1985-01-01",
    "lat": 51.704664,
    "long": -0.336052
  },
  {
    "town": "Trengune",
    "stationReference": "47169",
    "riverName": "River Ottery",
    "catchmentName": "Tamar",
    "datumOffset": null,
    "dateOpened": "2006-08-01",
    "lat": 50.710701,
    "long": -4.56631
  },
  {
    "town": "Chertsey",
    "stationReference": "2902TH",
    "riverName": "River Thames",
    "catchmentName": "Thames from Hurley to Teddington",
    "datumOffset": null,
    "dateOpened": "1985-01-01",
    "lat": 51.390617,
    "long": -0.48637
  },
  {
    "town": "Hedon Westlands Drain",
    "stationReference": "L1357",
    "riverName": "Alverthorpe Beck",
    "catchmentName": "Aire and Calder",
    "datumOffset": null,
    "dateOpened": "2003-01-19",
    "lat": 53.681612,
    "long": -1.517112
  },
  {
    "town": "Ladock",
    "stationReference": "48116",
    "riverName": "Tresillian River",
    "catchmentName": "Fal and St Austell Streams",
    "datumOffset": null,
    "dateOpened": "2002-01-01",
    "lat": 50.321143,
    "long": -4.961751
  },
  {
    "town": "Partney",
    "stationReference": "E1788",
    "riverName": "River Lymn",
    "catchmentName": "Witham",
    "datumOffset": 0.04,
    "dateOpened": "1979-01-01",
    "lat": 53.187011,
    "long": 0.096794
  },
  {
    "town": "Levisham",
    "stationReference": "F25110",
    "riverName": "Levisham Beck",
    "catchmentName": "Derwent",
    "datumOffset": null,
    "dateOpened": "1998-11-25",
    "lat": 54.299848,
    "long": -0.717923
  },
  {
    "town": "Maunby",
    "stationReference": "L2304",
    "riverName": "River Swale",
    "catchmentName": "Swale, Ure, Nidd and Upper Ouse",
    "datumOffset": null,
    "dateOpened": "2013-04-26",
    "lat": 54.270085,
    "long": -1.467898
  },
  {
    "town": "Tixover",
    "stationReference": "E2141",
    "riverName": "River Welland",
    "catchmentName": "Welland",
    "datumOffset": 30.51,
    "dateOpened": "1996-01-01",
    "lat": 52.587333,
    "long": -0.568186
  },
  {
    "town": "Reading",
    "stationReference": "2200TH",
    "riverName": "River Thames",
    "catchmentName": "Cherwell Thame and Wye",
    "datumOffset": null,
    "dateOpened": "1991-01-01",
    "lat": 51.461325,
    "long": -0.967884
  },
  {
    "town": "Whittonditch",
    "stationReference": "2230TH",
    "riverName": "River Kennet",
    "catchmentName": "Vale of White Horse",
    "datumOffset": null,
    "dateOpened": "1986-01-01",
    "lat": 51.437409,
    "long": -1.576981
  },
  {
    "town": "Gloucester",
    "stationReference": "2165",
    "riverName": "River Severn",
    "catchmentName": "Severn Vale",
    "datumOffset": null,
    "dateOpened": "1985-12-27",
    "lat": 51.864982,
    "long": -2.252201
  },
  {
    "town": "Pentlow",
    "stationReference": "E22539",
    "riverName": "River Stour",
    "catchmentName": "Essex",
    "datumOffset": null,
    "dateOpened": "1979-10-01",
    "lat": 52.085266,
    "long": 0.665897
  },
  {
    "town": "Nelson",
    "stationReference": "712130",
    "riverName": "Pendle Water",
    "catchmentName": "Ribble Douglas and Crossens",
    "datumOffset": null,
    "dateOpened": "2006-01-01",
    "lat": 53.836305,
    "long": -2.232297
  },
  {
    "town": "Old Whittington",
    "stationReference": "F0203",
    "riverName": "River Rother",
    "catchmentName": "Don and Rother",
    "datumOffset": null,
    "dateOpened": "1964-01-01",
    "lat": 53.266027,
    "long": -1.410737
  },
  {
    "town": "Gloucester",
    "stationReference": "2661",
    "riverName": "Horsbere Brook",
    "catchmentName": "Severn Vale",
    "datumOffset": null,
    "dateOpened": "2007-10-25",
    "lat": 51.840037,
    "long": -2.142115
  },
  {
    "town": "Horley",
    "stationReference": "3229TH",
    "riverName": "Gatwick Stream",
    "catchmentName": "Mole",
    "datumOffset": null,
    "dateOpened": "1986-01-01",
    "lat": 51.160212,
    "long": -0.163604
  },
  {
    "town": "Radcliffe",
    "stationReference": "690250",
    "riverName": "River Irwell",
    "catchmentName": "Northern Manchester",
    "datumOffset": null,
    "dateOpened": "2011-01-26",
    "lat": 53.561524,
    "long": -2.316991
  },
  {
    "town": "Kennington",
    "stationReference": "1501TH",
    "riverName": "River Thames",
    "catchmentName": "Cherwell Thame and Wye",
    "datumOffset": null,
    "dateOpened": "1995-01-01",
    "lat": 51.72955,
    "long": -1.239792
  },
  {
    "town": "Bredon",
    "stationReference": "2128",
    "riverName": "River Avon",
    "catchmentName": "Warwickshire Avon",
    "datumOffset": null,
    "dateOpened": "1988-01-01",
    "lat": 52.03494,
    "long": -2.116566
  },
  {
    "town": "Meaford",
    "stationReference": "4083",
    "riverName": "River Trent",
    "catchmentName": "Staffordshire Trent Valley",
    "datumOffset": null,
    "dateOpened": "1982-04-05",
    "lat": 52.916247,
    "long": -2.171867
  },
  {
    "town": "Diss",
    "stationReference": "E24814",
    "riverName": "River Waveney",
    "catchmentName": "Broadland Rivers",
    "datumOffset": 21.9,
    "dateOpened": "2000-02-01",
    "lat": 52.371419,
    "long": 1.099743
  },
  {
    "town": "Bridport",
    "stationReference": "44122",
    "riverName": "River Asker",
    "catchmentName": "West Dorset Streams",
    "datumOffset": null,
    "dateOpened": "1998-01-01",
    "lat": 50.731934,
    "long": -2.752192
  },
  {
    "town": "Woolsington",
    "stationReference": "023018",
    "riverName": "Ouse Burn",
    "catchmentName": "Tyne",
    "datumOffset": null,
    "dateOpened": "1983-01-01",
    "lat": 55.023247,
    "long": -1.698085
  },
  {
    "town": "Thorpe",
    "stationReference": "2928TH",
    "riverName": "Chertsey Bourne",
    "catchmentName": "Bournes",
    "datumOffset": 13,
    "dateOpened": "2005-01-01",
    "lat": 51.402823,
    "long": -0.539779
  },
  {
    "town": "Buckland Monachorum",
    "stationReference": "47122",
    "riverName": "River Tavy",
    "catchmentName": "Tamar",
    "datumOffset": null,
    "dateOpened": "1974-01-01",
    "lat": 50.493456,
    "long": -4.149573
  },
  {
    "town": "Ilam",
    "stationReference": "4046",
    "riverName": "River Dove",
    "catchmentName": "Dove",
    "datumOffset": null,
    "dateOpened": "1969-06-03",
    "lat": 53.055864,
    "long": -1.782274
  },
  {
    "town": "Botcherby, Carlisle",
    "stationReference": "764070",
    "riverName": "River Petteril",
    "catchmentName": "Eden and Esk",
    "datumOffset": null,
    "dateOpened": "2001-10-18",
    "lat": 54.89341,
    "long": -2.910796
  },
  {
    "town": "Kingthorpe",
    "stationReference": "E1245",
    "riverName": "Stainfield Beck",
    "catchmentName": "Witham",
    "datumOffset": null,
    "dateOpened": "1979-01-01",
    "lat": 53.250167,
    "long": -0.313829
  },
  {
    "town": "Horncastle",
    "stationReference": "E1839",
    "riverName": "River Waring",
    "catchmentName": "Witham",
    "datumOffset": 0.02,
    "dateOpened": "1998-01-01",
    "lat": 53.208433,
    "long": -0.108817
  },
  {
    "town": "Holme Pierrepont",
    "stationReference": "4009",
    "riverName": "River Trent",
    "catchmentName": "Lower Trent and Erewash",
    "datumOffset": null,
    "dateOpened": "1958-10-01",
    "lat": 52.952707,
    "long": -1.07772
  },
  {
    "town": "Edenbridge",
    "stationReference": "E1110",
    "riverName": "Eden Tributary  Medway",
    "catchmentName": "Medway",
    "datumOffset": 36.874,
    "dateOpened": "1992-03-01",
    "lat": 51.194078,
    "long": 0.065165
  },
  {
    "town": "Castle Howe",
    "stationReference": "751020",
    "riverName": "Bassenthwaite Lake",
    "catchmentName": "Derwent West Cumbria and Duddon",
    "datumOffset": null,
    "dateOpened": "1999-06-01",
    "lat": 54.666243,
    "long": -3.236916
  },
  {
    "town": "Frampton Cotterell",
    "stationReference": "53141",
    "riverName": "Bristol Frome",
    "catchmentName": "Bristol Avon Little Avon Axe and North Somerset St",
    "datumOffset": null,
    "dateOpened": "1977-12-28",
    "lat": 51.537816,
    "long": -2.481077
  },
  {
    "town": "Ewen",
    "stationReference": "0130TH",
    "riverName": "River Thames",
    "catchmentName": "Cotswolds",
    "datumOffset": null,
    "dateOpened": "1986-01-01",
    "lat": 51.674733,
    "long": -1.9904
  },
  {
    "town": "Hothfield",
    "stationReference": "E4370",
    "riverName": "Great Stour",
    "catchmentName": "Stour",
    "datumOffset": 49.654,
    "dateOpened": "2000-01-01",
    "lat": 51.171609,
    "long": 0.799508
  },
  {
    "town": "Othery",
    "stationReference": "52157",
    "riverName": "River Sowy",
    "catchmentName": "Parrett, Brue and West Somerset Streams",
    "datumOffset": null,
    "dateOpened": "1995-01-03",
    "lat": 51.079805,
    "long": -2.869413
  },
  {
    "town": "Gillingham",
    "stationReference": "43226",
    "riverName": "River Stour",
    "catchmentName": "Dorset Stour",
    "datumOffset": null,
    "dateOpened": "1992-01-01",
    "lat": 51.037252,
    "long": -2.278768
  },
  {
    "town": "Beddington",
    "stationReference": "4150TH",
    "riverName": "River Wandle",
    "catchmentName": "London",
    "datumOffset": null,
    "dateOpened": "1984-01-01",
    "lat": 51.373583,
    "long": -0.138986
  },
  {
    "town": "Boynton",
    "stationReference": "F3004",
    "riverName": "Gypsey Race",
    "catchmentName": "Hull and East Riding",
    "datumOffset": null,
    "dateOpened": "1981-01-29",
    "lat": 54.093099,
    "long": -0.263772
  },
  {
    "town": "Cricklade",
    "stationReference": "0190TH",
    "riverName": "River Thames",
    "catchmentName": "Cotswolds",
    "datumOffset": null,
    "dateOpened": "1986-01-01",
    "lat": 51.646694,
    "long": -1.865536
  },
  {
    "town": "Sandling",
    "stationReference": "E581",
    "riverName": "River Medway",
    "catchmentName": "Medway",
    "datumOffset": 3.767,
    "dateOpened": "2003-01-01",
    "lat": 51.291026,
    "long": 0.511282
  },
  {
    "town": "Sheffield",
    "stationReference": "L0414",
    "riverName": "Porter Brook",
    "catchmentName": "Don and Rother",
    "datumOffset": null,
    "dateOpened": "2005-12-09",
    "lat": 53.367798,
    "long": -1.521432
  },
  {
    "town": "West Drayton",
    "stationReference": "2885TH",
    "riverName": "River Colne",
    "catchmentName": "Colne (Lower)",
    "datumOffset": null,
    "dateOpened": "1995-01-01",
    "lat": 51.500923,
    "long": -0.482762
  },
  {
    "town": "Bampton Grange",
    "stationReference": "761260",
    "riverName": "River Lowther",
    "catchmentName": "Eden and Esk",
    "datumOffset": null,
    "dateOpened": "2000-10-01",
    "lat": 54.555577,
    "long": -2.743431
  },
  {
    "town": "Arlesey",
    "stationReference": "E22344",
    "riverName": "River Hiz",
    "catchmentName": "Upper and Bedford Ouse",
    "datumOffset": null,
    "dateOpened": "1979-10-03",
    "lat": 52.026751,
    "long": -0.266941
  },
  {
    "town": "Hovingham",
    "stationReference": "L2592",
    "riverName": "Hovingham Beck",
    "catchmentName": "Derwent",
    "datumOffset": null,
    "dateOpened": "2007-11-07",
    "lat": 54.173347,
    "long": -0.984145
  },
  {
    "town": "Wigan",
    "stationReference": "700325",
    "riverName": "River Douglas",
    "catchmentName": "Ribble Douglas and Crossens",
    "datumOffset": null,
    "dateOpened": "1999-01-01",
    "lat": 53.54925,
    "long": -2.625999
  },
  {
    "town": "Bures",
    "stationReference": "E21856",
    "riverName": "River Stour",
    "catchmentName": "Essex",
    "datumOffset": 17.605,
    "dateOpened": "2002-03-26",
    "lat": 51.972195,
    "long": 0.774544
  },
  {
    "town": "Mithian",
    "stationReference": "48107",
    "riverName": "Perrancombe Stream",
    "catchmentName": "West Cornwall",
    "datumOffset": null,
    "dateOpened": "2011-08-23",
    "lat": 50.311991,
    "long": -5.166154
  },
  {
    "town": "Bruton",
    "stationReference": "52208",
    "riverName": "River Brue",
    "catchmentName": "Parrett, Brue and West Somerset Streams",
    "datumOffset": 63.286,
    "dateOpened": "1992-11-01",
    "lat": 51.116056,
    "long": -2.430837
  },
  {
    "town": "Bishops Hull",
    "stationReference": "52110",
    "riverName": "Halse Water",
    "catchmentName": "Parrett, Brue and West Somerset Streams",
    "datumOffset": null,
    "dateOpened": "1962-01-01",
    "lat": 51.021033,
    "long": -3.132608
  },
  {
    "town": "North Middleton",
    "stationReference": "021030",
    "riverName": "Wooler Water",
    "catchmentName": "Till",
    "datumOffset": null,
    "dateOpened": "2000-03-16",
    "lat": 55.517539,
    "long": -2.005254
  },
  {
    "town": "Moreton",
    "stationReference": "685513",
    "riverName": "River Birket",
    "catchmentName": "Lower Mersey",
    "datumOffset": null,
    "dateOpened": "2005-11-24",
    "lat": 53.411889,
    "long": -3.088778
  },
  {
    "town": "Finchley",
    "stationReference": "3815TH",
    "riverName": "Mutton Brook",
    "catchmentName": "Brent (Brooks)",
    "datumOffset": null,
    "dateOpened": "2001-01-01",
    "lat": 51.584844,
    "long": -0.180888
  },
  {
    "town": "Kegworth",
    "stationReference": "4074",
    "riverName": "River Soar",
    "catchmentName": "Soar",
    "datumOffset": null,
    "dateOpened": "1978-12-01",
    "lat": 52.831898,
    "long": -1.273539
  },
  {
    "town": "Brigsley",
    "stationReference": "E1013",
    "riverName": "Waithe Beck",
    "catchmentName": "Grimsby and Ancholme",
    "datumOffset": 0.01,
    "dateOpened": "1979-01-01",
    "lat": 53.496174,
    "long": -0.11262
  },
  {
    "town": "Bourn",
    "stationReference": "E24805",
    "riverName": "Bourn Brook",
    "catchmentName": "Cam and Ely Ouse (Including South Level)",
    "datumOffset": 34.3,
    "dateOpened": "1999-06-29",
    "lat": 52.192643,
    "long": -0.064443
  },
  {
    "town": "Bidford on Avon",
    "stationReference": "2615",
    "riverName": "River Avon",
    "catchmentName": "Warwickshire Avon",
    "datumOffset": null,
    "dateOpened": "2001-04-11",
    "lat": 52.164097,
    "long": -1.857348
  },
  {
    "town": "Wytham",
    "stationReference": "1302TH",
    "riverName": "River Thames",
    "catchmentName": "Vale of White Horse",
    "datumOffset": null,
    "dateOpened": "1997-01-01",
    "lat": 51.776669,
    "long": -1.298428
  },
  {
    "town": "Upwey",
    "stationReference": "44113",
    "riverName": "River Wey",
    "catchmentName": "West Dorset Streams",
    "datumOffset": 37.5,
    "dateOpened": "2009-07-28",
    "lat": 50.665978,
    "long": -2.480781
  },
  {
    "town": "Swallowfield",
    "stationReference": "2469_w1TH",
    "riverName": "River Blackwater",
    "catchmentName": "Loddon",
    "datumOffset": null,
    "dateOpened": "1986-01-01",
    "lat": 51.377564,
    "long": -0.952526
  },
  {
    "town": "Alston",
    "stationReference": "023009",
    "riverName": "River South Tyne",
    "catchmentName": "Tyne",
    "datumOffset": null,
    "dateOpened": "1968-10-01",
    "lat": 54.812531,
    "long": -2.443415
  },
  {
    "town": "Waltham Cross",
    "stationReference": "5322TH",
    "riverName": "Theobalds Brook",
    "catchmentName": "Lower Lee",
    "datumOffset": null,
    "dateOpened": "2006-01-01",
    "lat": 51.691657,
    "long": -0.027263
  },
  {
    "town": "Bamford",
    "stationReference": "4037",
    "riverName": "River Derwent",
    "catchmentName": "Derbyshire Derwent",
    "datumOffset": null,
    "dateOpened": "1968-01-26",
    "lat": 53.335557,
    "long": -1.683843
  },
  {
    "town": "Boultham",
    "stationReference": "E2814",
    "riverName": "Sincil Dyke",
    "catchmentName": "Witham",
    "datumOffset": 1.89,
    "dateOpened": "1997-01-01",
    "lat": 53.221702,
    "long": -0.541127
  },
  {
    "town": "Bickington",
    "stationReference": "46129",
    "riverName": "River Lemon",
    "catchmentName": "Teign Torbay and South Hams",
    "datumOffset": null,
    "dateOpened": "1994-01-01",
    "lat": 50.539272,
    "long": -3.702255
  },
  {
    "town": "Northolt",
    "stationReference": "3629TH",
    "riverName": "Yeading Brook (Eastern Arm)",
    "catchmentName": "Crane",
    "datumOffset": null,
    "dateOpened": "1988-01-01",
    "lat": 51.548783,
    "long": -0.397836
  },
  {
    "town": "St Breward",
    "stationReference": "49129",
    "riverName": "De Lank River",
    "catchmentName": "North Cornwall",
    "datumOffset": null,
    "dateOpened": "1969-11-01",
    "lat": 50.558795,
    "long": -4.637796
  },
  {
    "town": "Burrington",
    "stationReference": "50132",
    "riverName": "River Taw",
    "catchmentName": "Taw and North Devon Streams",
    "datumOffset": null,
    "dateOpened": "1995-01-01",
    "lat": 50.939901,
    "long": -3.907581
  },
  {
    "town": "Thame",
    "stationReference": "1961TH",
    "riverName": "River Thame",
    "catchmentName": "Cherwell Thame and Wye",
    "datumOffset": null,
    "dateOpened": "1997-01-01",
    "lat": 51.753138,
    "long": -0.982253
  },
  {
    "town": "Tytherton Lucas",
    "stationReference": "53132",
    "riverName": "River Marden",
    "catchmentName": "Bristol Avon Little Avon Axe and North Somerset St",
    "datumOffset": null,
    "dateOpened": "1970-01-01",
    "lat": 51.455821,
    "long": -2.065573
  },
  {
    "town": "Wincanton",
    "stationReference": "43217",
    "riverName": "River Cale",
    "catchmentName": "Dorset Stour",
    "datumOffset": null,
    "dateOpened": "2004-01-01",
    "lat": 51.048996,
    "long": -2.41251
  },
  {
    "town": "Stainfield",
    "stationReference": "E2902",
    "riverName": "River Witham",
    "catchmentName": "Witham",
    "datumOffset": 2.8,
    "dateOpened": "1984-01-01",
    "lat": 53.226658,
    "long": -0.368683
  },
  {
    "town": "Helston",
    "stationReference": "48172",
    "riverName": "River Cober",
    "catchmentName": "West Cornwall",
    "datumOffset": null,
    "dateOpened": "2009-07-01",
    "lat": 50.100002,
    "long": -5.279794
  },
  {
    "town": "Middleton",
    "stationReference": "022015",
    "riverName": "River Wansbeck",
    "catchmentName": "Northumberland Rivers",
    "datumOffset": null,
    "dateOpened": "2001-01-01",
    "lat": 55.151643,
    "long": -1.917583
  },
  {
    "town": "Wennington",
    "stationReference": "724326",
    "riverName": "River Wenning",
    "catchmentName": "Lune and Wyre",
    "datumOffset": null,
    "dateOpened": "1975-01-01",
    "lat": 54.125115,
    "long": -2.589971
  },
  {
    "town": "Sheffield",
    "stationReference": "L0405",
    "riverName": "River Sheaf",
    "catchmentName": "Don and Rother",
    "datumOffset": null,
    "dateOpened": "1998-01-16",
    "lat": 53.351517,
    "long": -1.484072
  },
  {
    "town": "Cheshunt",
    "stationReference": "5318TH",
    "riverName": "Small River Lee",
    "catchmentName": "Lower Lee",
    "datumOffset": null,
    "dateOpened": "2006-01-01",
    "lat": 51.703222,
    "long": -0.022505
  },
  {
    "town": "Tiverton",
    "stationReference": "45135",
    "riverName": "River Exe",
    "catchmentName": "Exe",
    "datumOffset": null,
    "dateOpened": "1997-01-01",
    "lat": 50.883029,
    "long": -3.489856
  },
  {
    "town": "Batley Carlinghow  (up stream)",
    "stationReference": "L1376",
    "riverName": "Batley Beck",
    "catchmentName": "Aire and Calder",
    "datumOffset": null,
    "dateOpened": "1996-08-17",
    "lat": 53.71811,
    "long": -1.638949
  },
  {
    "town": "Westminster",
    "stationReference": "0006",
    "riverName": "Thames Tideway",
    "catchmentName": "London",
    "datumOffset": null,
    "dateOpened": "1989-01-03",
    "lat": 51.501216,
    "long": -0.12385
  },
  {
    "town": "Little Bollington",
    "stationReference": "693515",
    "riverName": "River Bollin",
    "catchmentName": "Upper Mersey",
    "datumOffset": null,
    "dateOpened": "2000-09-19",
    "lat": 53.380045,
    "long": -2.406589
  },
  {
    "town": "Middlesborough",
    "stationReference": "L3901",
    "riverName": "River Tees",
    "catchmentName": "Tees",
    "datumOffset": null,
    "dateOpened": "1992-01-01",
    "lat": 54.603816,
    "long": -1.16076
  },
  {
    "town": "Northallerton",
    "stationReference": "L2323",
    "riverName": "Willow Beck",
    "catchmentName": "Swale, Ure, Nidd and Upper Ouse",
    "datumOffset": null,
    "dateOpened": "2003-05-07",
    "lat": 54.338848,
    "long": -1.442218
  },
  {
    "town": "Radlett",
    "stationReference": "2808TH",
    "riverName": "Radlett Brook",
    "catchmentName": "Colne (Upper)",
    "datumOffset": null,
    "dateOpened": "2001-01-01",
    "lat": 51.682315,
    "long": -0.315607
  },
  {
    "town": "Grendon Underwood",
    "stationReference": "1471TH",
    "riverName": "River Ray",
    "catchmentName": "Cherwell Thame and Wye",
    "datumOffset": null,
    "dateOpened": "1986-01-01",
    "lat": 51.884491,
    "long": -1.012852
  },
  {
    "town": "Higher Wincham",
    "stationReference": "681213",
    "riverName": "Wincham Brook",
    "catchmentName": "Weaver and Dane",
    "datumOffset": null,
    "dateOpened": "1976-01-01",
    "lat": 53.277575,
    "long": -2.455855
  },
  {
    "town": "Sowerby Bridge",
    "stationReference": "L1241",
    "riverName": "River Ryburn",
    "catchmentName": "Aire and Calder",
    "datumOffset": null,
    "dateOpened": "2000-08-28",
    "lat": 53.70594,
    "long": -1.91329
  },
  {
    "town": "Wanborough",
    "stationReference": "0712TH",
    "riverName": "Dorcan Brook",
    "catchmentName": "Vale of White Horse",
    "datumOffset": null,
    "dateOpened": "2001-01-01",
    "lat": 51.563545,
    "long": -1.722961
  },
  {
    "town": "Lincoln",
    "stationReference": "E1672",
    "riverName": "Fosdyke Canal",
    "catchmentName": "Witham",
    "datumOffset": 3.1,
    "dateOpened": "1984-01-01",
    "lat": 53.23087,
    "long": -0.555797
  },
  {
    "town": "Trowlock Island",
    "stationReference": "3404TH",
    "riverName": "River Thames",
    "catchmentName": "Thames from Hurley to Teddington",
    "datumOffset": null,
    "dateOpened": "2003-01-01",
    "lat": 51.423993,
    "long": -0.308538
  },
  {
    "town": "Beckfoot",
    "stationReference": "740102",
    "riverName": "River Duddon",
    "catchmentName": "South Cumbria",
    "datumOffset": null,
    "dateOpened": "1975-01-01",
    "lat": 54.295374,
    "long": -3.237418
  },
  {
    "town": "Park Farm",
    "stationReference": "E4412",
    "riverName": "Old Mill Stream",
    "catchmentName": "Stour",
    "datumOffset": 35.931,
    "dateOpened": "2003-01-01",
    "lat": 51.133674,
    "long": 0.880127
  },
  {
    "town": "Medbourne",
    "stationReference": "E2717",
    "riverName": "Medbourne Brook",
    "catchmentName": "Welland",
    "datumOffset": null,
    "dateOpened": "1979-01-01",
    "lat": 52.537116,
    "long": -0.824895
  },
  {
    "town": "Sprouston",
    "stationReference": "021021",
    "riverName": "River Tweed",
    "catchmentName": "Till",
    "datumOffset": null,
    "dateOpened": "2006-01-19",
    "lat": 55.61121,
    "long": -2.395446
  },
  {
    "town": "Kingston Russell",
    "stationReference": "44239",
    "riverName": "Groundwater Level",
    "catchmentName": "Frome, Piddle, Poole Harbour and Purbeck",
    "datumOffset": null,
    "dateOpened": "2006-07-24",
    "lat": 50.715805,
    "long": -2.5855
  },
  {
    "town": "Bellingham",
    "stationReference": "023037",
    "riverName": "River North Tyne",
    "catchmentName": "Tyne",
    "datumOffset": null,
    "dateOpened": "2000-01-01",
    "lat": 55.142852,
    "long": -2.261953
  },
  {
    "town": "North Tidworth",
    "stationReference": "43157",
    "riverName": "River Bourne",
    "catchmentName": "Hampshire Avon",
    "datumOffset": null,
    "dateOpened": "2004-11-22",
    "lat": 51.242295,
    "long": -1.662004
  },
  {
    "town": "Tideford",
    "stationReference": "47141",
    "riverName": "River Tiddy",
    "catchmentName": "Tamar",
    "datumOffset": null,
    "dateOpened": "1969-10-01",
    "lat": 50.413192,
    "long": -4.331177
  },
  {
    "town": "Torksey",
    "stationReference": "4065",
    "riverName": "River Trent",
    "catchmentName": "Lower Trent and Erewash",
    "datumOffset": null,
    "dateOpened": "1972-08-01",
    "lat": 53.293511,
    "long": -0.750996
  },
  {
    "town": "New Alresford",
    "stationReference": "E12791",
    "riverName": "River Alre",
    "catchmentName": "Test and Itchen",
    "datumOffset": null,
    "dateOpened": "1981-08-01",
    "lat": 51.089282,
    "long": -1.180897
  },
  {
    "town": "Welney Causeway",
    "stationReference": "E21341",
    "riverName": "River Great Ouse",
    "catchmentName": "Old Bedford including the Middle Level",
    "datumOffset": null,
    "dateOpened": "1988-05-17",
    "lat": 52.518826,
    "long": 0.252026
  },
  {
    "town": "Euxton",
    "stationReference": "700404",
    "riverName": "River Yarrow",
    "catchmentName": "Ribble Douglas and Crossens",
    "datumOffset": null,
    "dateOpened": "2001-01-01",
    "lat": 53.655307,
    "long": -2.676594
  },
  {
    "town": "Walcot",
    "stationReference": "2012",
    "riverName": "River Tern",
    "catchmentName": "Shropshire Middle Severn",
    "datumOffset": null,
    "dateOpened": "1959-05-12",
    "lat": 52.706629,
    "long": -2.60558
  },
  {
    "town": "Satterthwaite",
    "stationReference": "735226",
    "riverName": "Cunsey Beck",
    "catchmentName": "South Cumbria",
    "datumOffset": null,
    "dateOpened": "1976-01-01",
    "lat": 54.338025,
    "long": -2.970931
  },
  {
    "town": "Gloucester",
    "stationReference": "2272",
    "riverName": "Wotton Brook",
    "catchmentName": "Severn Vale",
    "datumOffset": null,
    "dateOpened": "2013-09-19",
    "lat": 51.863183,
    "long": -2.221361
  },
  {
    "town": "Bodicote",
    "stationReference": "1437TH",
    "riverName": "Sor Brook",
    "catchmentName": "Cherwell Thame and Wye",
    "datumOffset": null,
    "dateOpened": "1994-01-01",
    "lat": 52.028582,
    "long": -1.326852
  },
  {
    "town": "Chipping Ongar",
    "stationReference": "5427TH",
    "riverName": "Cripsey Brook",
    "catchmentName": "Rodding",
    "datumOffset": null,
    "dateOpened": "1981-01-01",
    "lat": 51.709101,
    "long": 0.239586
  },
  {
    "town": "Streatley",
    "stationReference": "2003TH",
    "riverName": "River Thames",
    "catchmentName": "Cherwell Thame and Wye",
    "datumOffset": null,
    "dateOpened": "1995-01-01",
    "lat": 51.523317,
    "long": -1.141252
  },
  {
    "town": "High Green",
    "stationReference": "L12061",
    "riverName": "River Calder",
    "catchmentName": "Aire and Calder",
    "datumOffset": null,
    "dateOpened": "2007-03-15",
    "lat": 53.732891,
    "long": -2.045203
  },
  {
    "town": "Smithy Houses",
    "stationReference": "4190",
    "riverName": "Bottle Brook",
    "catchmentName": "Derbyshire Derwent",
    "datumOffset": null,
    "dateOpened": "2004-05-17",
    "lat": 53.019889,
    "long": -1.425573
  },
  {
    "town": "Appleton",
    "stationReference": "1099TH",
    "riverName": "River Thames",
    "catchmentName": "Cotswolds",
    "datumOffset": null,
    "dateOpened": "1995-01-01",
    "lat": 51.716858,
    "long": -1.374624
  },
  {
    "town": "Sturmer",
    "stationReference": "E22511",
    "riverName": "Stour Brook",
    "catchmentName": "Essex",
    "datumOffset": null,
    "dateOpened": "1979-12-28",
    "lat": 52.069056,
    "long": 0.474036
  },
  {
    "town": "Little Bytham",
    "stationReference": "E2694",
    "riverName": "River Tham",
    "catchmentName": "Welland",
    "datumOffset": 0.05,
    "dateOpened": "1979-10-01",
    "lat": 52.748345,
    "long": -0.50217
  },
  {
    "town": "Barbrook",
    "stationReference": "50123",
    "riverName": "West Lyn River",
    "catchmentName": "Taw and North Devon Streams",
    "datumOffset": null,
    "dateOpened": "2011-05-27",
    "lat": 51.213836,
    "long": -3.841064
  },
  {
    "town": "Silsden",
    "stationReference": "L1515",
    "riverName": "Silsden Beck",
    "catchmentName": "Aire and Calder",
    "datumOffset": null,
    "dateOpened": "2000-06-07",
    "lat": 53.923505,
    "long": -1.933535
  },
  {
    "town": "Stokesley",
    "stationReference": "L3804",
    "riverName": "River Leven",
    "catchmentName": "Tees",
    "datumOffset": null,
    "dateOpened": "1999-08-15",
    "lat": 54.462673,
    "long": -1.19921
  },
  {
    "town": "Semington",
    "stationReference": "53123",
    "riverName": "Semington Brook",
    "catchmentName": "Bristol Avon Little Avon Axe and North Somerset St",
    "datumOffset": null,
    "dateOpened": "1968-06-25",
    "lat": 51.343988,
    "long": -2.134327
  },
  {
    "town": "Kislingbury",
    "stationReference": "E1946",
    "riverName": "River Nene",
    "catchmentName": "Nene",
    "datumOffset": 63.84,
    "dateOpened": "2002-01-01",
    "lat": 52.231962,
    "long": -0.97793
  },
  {
    "town": "Todmorden",
    "stationReference": "F1207",
    "riverName": "River Calder",
    "catchmentName": "Aire and Calder",
    "datumOffset": null,
    "dateOpened": "1996-08-18",
    "lat": 53.716861,
    "long": -2.096931
  },
  {
    "town": "Gillingham",
    "stationReference": "43208",
    "riverName": "River Lodden",
    "catchmentName": "Dorset Stour",
    "datumOffset": 68,
    "dateOpened": "1992-01-01",
    "lat": 51.034144,
    "long": -2.265686
  },
  {
    "town": "Ollerton",
    "stationReference": "4116",
    "riverName": "River Maun",
    "catchmentName": "Idle and Torne",
    "datumOffset": null,
    "dateOpened": "1992-09-28",
    "lat": 53.226502,
    "long": -1.008036
  },
  {
    "town": "The Mythe",
    "stationReference": "2087",
    "riverName": "River Severn",
    "catchmentName": "Severn Vale",
    "datumOffset": null,
    "dateOpened": "1989-04-21",
    "lat": 52.00171,
    "long": -2.163093
  },
  {
    "town": "Woodlesford",
    "stationReference": "F1703",
    "riverName": "River Aire",
    "catchmentName": "Aire and Calder",
    "datumOffset": null,
    "dateOpened": "1985-09-06",
    "lat": 53.751469,
    "long": -1.423682
  },
  {
    "town": "Croft-on-Tees",
    "stationReference": "L3693",
    "riverName": "Clow Beck",
    "catchmentName": "Tees",
    "datumOffset": null,
    "dateOpened": "2000-06-30",
    "lat": 54.484792,
    "long": -1.567976
  },
  {
    "town": "Burnley",
    "stationReference": "712052",
    "riverName": "River Calder",
    "catchmentName": "Ribble Douglas and Crossens",
    "datumOffset": null,
    "dateOpened": "1997-01-01",
    "lat": 53.78552,
    "long": -2.234141
  },
  {
    "town": "Whaddon",
    "stationReference": "E22103",
    "riverName": "Whaddon Brook",
    "catchmentName": "Cam and Ely Ouse (Including South Level)",
    "datumOffset": null,
    "dateOpened": "1992-07-01",
    "lat": 52.101809,
    "long": -0.017376
  },
  {
    "town": "Hartford Bridge",
    "stationReference": "022006",
    "riverName": "River Blyth",
    "catchmentName": "Northumberland Rivers",
    "datumOffset": null,
    "dateOpened": "1963-03-16",
    "lat": 55.113789,
    "long": -1.620587
  },
  {
    "town": "Combeinteignhead",
    "stationReference": "46110",
    "riverName": "River Teign",
    "catchmentName": "Teign Torbay and South Hams",
    "datumOffset": null,
    "dateOpened": "2000-01-01",
    "lat": 50.541046,
    "long": -3.550843
  },
  {
    "town": "Fremington",
    "stationReference": "L2351",
    "riverName": "Arkle Beck",
    "catchmentName": "Swale, Ure, Nidd and Upper Ouse",
    "datumOffset": null,
    "dateOpened": "2000-07-03",
    "lat": 54.387346,
    "long": -1.936039
  },
  {
    "town": "Isleham",
    "stationReference": "E21119",
    "riverName": "River Kennett",
    "catchmentName": "Cam and Ely Ouse (Including South Level)",
    "datumOffset": null,
    "dateOpened": "1979-07-14",
    "lat": 52.332181,
    "long": 0.438278
  },
  {
    "town": "Exminster",
    "stationReference": "45126",
    "riverName": "Exminster Marshes",
    "catchmentName": "Exe",
    "datumOffset": null,
    "dateOpened": "2000-01-01",
    "lat": 50.690882,
    "long": -3.496147
  },
  {
    "town": "Lostwithiel",
    "stationReference": "49110",
    "riverName": "River Fowey",
    "catchmentName": "Seaton, Looe and Fowey",
    "datumOffset": null,
    "dateOpened": "1961-03-31",
    "lat": 50.431183,
    "long": -4.67963
  },
  {
    "town": "Hemel Hempstead",
    "stationReference": "2844TH",
    "riverName": "River Bulbourne",
    "catchmentName": "Colne (Upper)",
    "datumOffset": null,
    "dateOpened": "1985-01-01",
    "lat": 51.744674,
    "long": -0.49654
  },
  {
    "town": "Sandilands",
    "stationReference": "E1538",
    "riverName": "Tide",
    "catchmentName": "England - East Coast",
    "datumOffset": null,
    "dateOpened": "1970-01-01",
    "lat": 53.293005,
    "long": 0.297051
  },
  {
    "town": "Wendron",
    "stationReference": "48126",
    "riverName": "River Cober",
    "catchmentName": "West Cornwall",
    "datumOffset": null,
    "dateOpened": "1998-02-13",
    "lat": 50.133798,
    "long": -5.254647
  },
  {
    "town": "Cantley",
    "stationReference": "E23060",
    "riverName": "River Yare",
    "catchmentName": "Broadland Rivers",
    "datumOffset": null,
    "dateOpened": "1992-12-01",
    "lat": 52.576492,
    "long": 1.516029
  },
  {
    "town": "Kirby Sigston",
    "stationReference": "L2314",
    "riverName": "Cod Beck",
    "catchmentName": "Swale, Ure, Nidd and Upper Ouse",
    "datumOffset": null,
    "dateOpened": "1999-06-04",
    "lat": 54.347769,
    "long": -1.3567
  },
  {
    "town": "Aycliffe Village",
    "stationReference": "F3705",
    "riverName": "River Skerne",
    "catchmentName": "Tees",
    "datumOffset": null,
    "dateOpened": "1972-11-08",
    "lat": 54.60851,
    "long": -1.549436
  },
  {
    "town": "Derwent Water at Lodore",
    "stationReference": "750106",
    "riverName": "Derwentwater",
    "catchmentName": "Derwent West Cumbria and Duddon",
    "datumOffset": null,
    "dateOpened": "1995-07-01",
    "lat": 54.562827,
    "long": -3.138777
  },
  {
    "town": "Ross On Wye",
    "stationReference": "055817_TG 323",
    "riverName": "River Wye",
    "catchmentName": "Wye",
    "datumOffset": null,
    "dateOpened": "1987-10-01",
    "lat": 51.915339,
    "long": -2.587573
  },
  {
    "town": "Tan Hall",
    "stationReference": "L2810",
    "riverName": "River Derwent",
    "catchmentName": "Derwent",
    "datumOffset": null,
    "dateOpened": "1998-05-22",
    "lat": 53.991789,
    "long": -0.916086
  },
  {
    "town": "Lakenheath",
    "stationReference": "E21838",
    "riverName": "River Little Ouse",
    "catchmentName": "Cam and Ely Ouse (Including South Level)",
    "datumOffset": 100,
    "dateOpened": "1993-03-01",
    "lat": 52.453082,
    "long": 0.545246
  },
  {
    "town": "Whitwick",
    "stationReference": "4204",
    "riverName": "Grace Dieu Brook",
    "catchmentName": "Soar",
    "datumOffset": null,
    "dateOpened": "2008-06-02",
    "lat": 52.739499,
    "long": -1.353725
  },
  {
    "town": "Crewgreen",
    "stationReference": "2175",
    "riverName": "River Severn",
    "catchmentName": "Severn Uplands",
    "datumOffset": null,
    "dateOpened": "1991-12-27",
    "lat": 52.735739,
    "long": -2.994315
  },
  {
    "town": "Cheltenham",
    "stationReference": "2671",
    "riverName": "Lilley Brook",
    "catchmentName": "Severn Vale",
    "datumOffset": null,
    "dateOpened": "2008-09-15",
    "lat": 51.883138,
    "long": -2.061691
  },
  {
    "town": "Bickley",
    "stationReference": "4381TH",
    "riverName": "Kyd Brook",
    "catchmentName": "London",
    "datumOffset": null,
    "dateOpened": "1997-01-01",
    "lat": 51.403702,
    "long": 0.060218
  },
  {
    "town": "Wykeham",
    "stationReference": "F2502",
    "riverName": "River Rye",
    "catchmentName": "Derwent",
    "datumOffset": null,
    "dateOpened": "1992-12-09",
    "lat": 54.174308,
    "long": -0.762132
  },
  {
    "town": "Chapel Hill",
    "stationReference": "E4403",
    "riverName": "River Witham",
    "catchmentName": "Witham",
    "datumOffset": 0.47,
    "dateOpened": "1997-01-01",
    "lat": 53.070452,
    "long": -0.196967
  },
  {
    "town": "Princes Marsh",
    "stationReference": "E10368",
    "riverName": "River Rother",
    "catchmentName": "Arun and Western Streams",
    "datumOffset": null,
    "dateOpened": "1981-05-01",
    "lat": 51.037463,
    "long": -0.89988
  },
  {
    "town": "Fordcombe",
    "stationReference": "E651",
    "riverName": "River Medway",
    "catchmentName": "Medway",
    "datumOffset": null,
    "dateOpened": "1967-01-01",
    "lat": 51.150722,
    "long": 0.174763
  },
  {
    "town": "Fairmile",
    "stationReference": "45214",
    "riverName": "River Tale",
    "catchmentName": "Otter, Sid, Axe and Lim",
    "datumOffset": null,
    "dateOpened": "1978-09-06",
    "lat": 50.767191,
    "long": -3.29459
  },
  {
    "town": "Barrow Upon Soar",
    "stationReference": "4093",
    "riverName": "River Soar",
    "catchmentName": "Soar",
    "datumOffset": null,
    "dateOpened": "1986-08-01",
    "lat": 52.758541,
    "long": -1.164067
  },
  {
    "town": "Sandiacre",
    "stationReference": "4427",
    "riverName": "River Erewash",
    "catchmentName": "Lower Trent and Erewash",
    "datumOffset": null,
    "dateOpened": "1972-09-01",
    "lat": 52.921584,
    "long": -1.283492
  },
  {
    "town": "Tibberton",
    "stationReference": "2040",
    "riverName": "River Meese",
    "catchmentName": "Shropshire Middle Severn",
    "datumOffset": null,
    "dateOpened": "1973-10-30",
    "lat": 52.781029,
    "long": -2.474812
  },
  {
    "town": "Furneux Pelham",
    "stationReference": "5016TH",
    "riverName": "River Ash",
    "catchmentName": "Ash (Herts)",
    "datumOffset": null,
    "dateOpened": "2004-01-01",
    "lat": 51.930418,
    "long": 0.086394
  },
  {
    "town": "Burford",
    "stationReference": "2634",
    "riverName": "Ledwyche Brook",
    "catchmentName": "Teme",
    "datumOffset": null,
    "dateOpened": "2004-11-09",
    "lat": 52.311774,
    "long": -2.625404
  },
  {
    "town": "Houghton Le Spring",
    "stationReference": "024012",
    "riverName": "Moors Burn",
    "catchmentName": "Wear",
    "datumOffset": null,
    "dateOpened": "2000-04-19",
    "lat": 54.842382,
    "long": -1.487058
  },
  {
    "town": "Naburn",
    "stationReference": "L2402",
    "riverName": "River Ouse",
    "catchmentName": "Wharfe and Lower Ouse",
    "datumOffset": null,
    "dateOpened": "1991-11-06",
    "lat": 53.89327,
    "long": -1.097619
  },
  {
    "town": "Chollerford",
    "stationReference": "023028",
    "riverName": "River North Tyne",
    "catchmentName": "Tyne",
    "datumOffset": null,
    "dateOpened": "2000-06-04",
    "lat": 55.029637,
    "long": -2.127318
  },
  {
    "town": "Hackbridge",
    "stationReference": "4165TH",
    "riverName": "River Wandle",
    "catchmentName": "London",
    "datumOffset": null,
    "dateOpened": "2000-01-01",
    "lat": 51.377064,
    "long": -0.160112
  },
  {
    "town": "Cornwood",
    "stationReference": "47132",
    "riverName": "River Yealm",
    "catchmentName": "Tamar",
    "datumOffset": null,
    "dateOpened": "1997-01-01",
    "lat": 50.417855,
    "long": -3.959444
  },
  {
    "town": "Rothley",
    "stationReference": "4056",
    "riverName": "Rothley Brook",
    "catchmentName": "Soar",
    "datumOffset": null,
    "dateOpened": "1973-05-10",
    "lat": 52.7031,
    "long": -1.142483
  },
  {
    "town": "Totteridge",
    "stationReference": "3804TH",
    "riverName": "Dollis Brook",
    "catchmentName": "Brent (Brooks)",
    "datumOffset": null,
    "dateOpened": "2006-01-01",
    "lat": 51.623491,
    "long": -0.185411
  },
  {
    "town": "Newton Abbot",
    "stationReference": "46148",
    "riverName": "River Lemon",
    "catchmentName": "Teign Torbay and South Hams",
    "datumOffset": null,
    "dateOpened": "1997-12-01",
    "lat": 50.533259,
    "long": -3.657787
  },
  {
    "town": "Bromley",
    "stationReference": "4317TH",
    "riverName": "River Ravensbourne",
    "catchmentName": "London",
    "datumOffset": null,
    "dateOpened": "1997-01-01",
    "lat": 51.401378,
    "long": 0.028483
  },
  {
    "town": "Marham",
    "stationReference": "E23705",
    "riverName": "River Nar",
    "catchmentName": "North West Norfolk",
    "datumOffset": null,
    "dateOpened": "1979-10-04",
    "lat": 52.678061,
    "long": 0.547924
  },
  {
    "town": "Branston",
    "stationReference": "4019",
    "riverName": "River Trent",
    "catchmentName": "Tame Anker and Mease",
    "datumOffset": null,
    "dateOpened": "1959-05-21",
    "lat": 52.780647,
    "long": -1.647106
  },
  {
    "town": "Lapford",
    "stationReference": "50151",
    "riverName": "River Yeo",
    "catchmentName": "Taw and North Devon Streams",
    "datumOffset": null,
    "dateOpened": "1997-01-01",
    "lat": 50.857808,
    "long": -3.810592
  },
  {
    "town": "Stroud",
    "stationReference": "2226",
    "riverName": "Slad Brook",
    "catchmentName": "Severn Vale",
    "datumOffset": null,
    "dateOpened": "2010-04-06",
    "lat": 51.747599,
    "long": -2.214291
  },
  {
    "town": "Thuxton",
    "stationReference": "E22006",
    "riverName": "River Yare",
    "catchmentName": "Broadland Rivers",
    "datumOffset": 27.35,
    "dateOpened": "2001-05-01",
    "lat": 52.612011,
    "long": 1.01713
  },
  {
    "town": "East Molesey",
    "stationReference": "3102TH",
    "riverName": "River Thames",
    "catchmentName": "Thames from Hurley to Teddington",
    "datumOffset": null,
    "dateOpened": "1996-07-03",
    "lat": 51.406476,
    "long": -0.349558
  },
  {
    "town": "Piddlehinton",
    "stationReference": "44220",
    "riverName": "River Piddle",
    "catchmentName": "Frome, Piddle, Poole Harbour and Purbeck",
    "datumOffset": null,
    "dateOpened": "1992-01-01",
    "lat": 50.767098,
    "long": -2.400751
  },
  {
    "town": "Ampney St Peter",
    "stationReference": "0470TH",
    "riverName": "Ampney Brook",
    "catchmentName": "Cotswolds",
    "datumOffset": null,
    "dateOpened": "1982-01-01",
    "lat": 51.710647,
    "long": -1.889951
  },
  {
    "town": "Goodleigh",
    "stationReference": "50114",
    "riverName": "River Yeo",
    "catchmentName": "Taw and North Devon Streams",
    "datumOffset": null,
    "dateOpened": "1995-09-07",
    "lat": 51.099972,
    "long": -4.010005
  },
  {
    "town": "Great Chesterford",
    "stationReference": "E21778",
    "riverName": "River Cam",
    "catchmentName": "Cam and Ely Ouse (Including South Level)",
    "datumOffset": null,
    "dateOpened": "1992-07-01",
    "lat": 52.06173,
    "long": 0.194279
  },
  {
    "town": "Mountnessing",
    "stationReference": "E24899",
    "riverName": "River Wid",
    "catchmentName": "Essex",
    "datumOffset": 50.4,
    "dateOpened": "1995-10-03",
    "lat": 51.648181,
    "long": 0.346098
  },
  {
    "town": "Huntingford",
    "stationReference": "43236",
    "riverName": "Shreen Water",
    "catchmentName": "Dorset Stour",
    "datumOffset": null,
    "dateOpened": "2008-01-04",
    "lat": 51.067397,
    "long": -2.26953
  },
  {
    "town": "Ravenshaw",
    "stationReference": "L1506",
    "riverName": "River Aire",
    "catchmentName": "Aire and Calder",
    "datumOffset": null,
    "dateOpened": "1991-01-24",
    "lat": 53.940697,
    "long": -2.021283
  },
  {
    "town": "Hellifield",
    "stationReference": "710125",
    "riverName": "Hellifield Beck",
    "catchmentName": "Ribble Douglas and Crossens",
    "datumOffset": null,
    "dateOpened": "2006-12-06",
    "lat": 54.006777,
    "long": -2.221986
  },
  {
    "town": "Mevagissey",
    "stationReference": "48191",
    "riverName": "Mevagissey Stream",
    "catchmentName": "Fal and St Austell Streams",
    "datumOffset": null,
    "dateOpened": "2009-08-04",
    "lat": 50.272818,
    "long": -4.791471
  },
  {
    "town": "Wheatley",
    "stationReference": "1980TH",
    "riverName": "River Thame",
    "catchmentName": "Cherwell Thame and Wye",
    "datumOffset": null,
    "dateOpened": "1988-01-01",
    "lat": 51.740637,
    "long": -1.115198
  },
  {
    "town": "Ingworth",
    "stationReference": "E23186",
    "riverName": "River Bure",
    "catchmentName": "Broadland Rivers",
    "datumOffset": null,
    "dateOpened": "1979-10-02",
    "lat": 52.819304,
    "long": 1.251666
  },
  {
    "town": "Nether Poppleton",
    "stationReference": "F2405",
    "riverName": "River Ouse",
    "catchmentName": "Swale, Ure, Nidd and Upper Ouse",
    "datumOffset": null,
    "dateOpened": "1969-09-18",
    "lat": 53.991515,
    "long": -1.135153
  },
  {
    "town": "Newby Bridge",
    "stationReference": "735430",
    "riverName": "River Leven",
    "catchmentName": "South Cumbria",
    "datumOffset": null,
    "dateOpened": "1976-01-01",
    "lat": 54.268069,
    "long": -2.974952
  },
  {
    "town": "Capernwray",
    "stationReference": "733020",
    "riverName": "River Keer",
    "catchmentName": "Lune and Wyre",
    "datumOffset": null,
    "dateOpened": "1975-01-01",
    "lat": 54.140607,
    "long": -2.731323
  },
  {
    "town": "Cowley",
    "stationReference": "45117",
    "riverName": "River Creedy",
    "catchmentName": "Exe",
    "datumOffset": null,
    "dateOpened": "1964-03-23",
    "lat": 50.759747,
    "long": -3.559651
  },
  {
    "town": "Wakefield",
    "stationReference": "L1358",
    "riverName": "Alverthorpe Beck",
    "catchmentName": "Aire and Calder",
    "datumOffset": null,
    "dateOpened": "2003-07-18",
    "lat": 53.686013,
    "long": -1.529962
  },
  {
    "town": "Helston",
    "stationReference": "48117",
    "riverName": "River Cober",
    "catchmentName": "West Cornwall",
    "datumOffset": null,
    "dateOpened": "1997-01-01",
    "lat": 50.08362,
    "long": -5.291203
  },
  {
    "town": "Braunton",
    "stationReference": "50189",
    "riverName": "River Caen",
    "catchmentName": "Taw and North Devon Streams",
    "datumOffset": null,
    "dateOpened": "2009-06-02",
    "lat": 51.111292,
    "long": -4.161795
  },
  {
    "town": "Sheepwash Bridge",
    "stationReference": "E6980",
    "riverName": "Cuckmere & Pevensey Levels",
    "catchmentName": "Cuckmere and Pevensey Levels",
    "datumOffset": null,
    "dateOpened": "2000-07-01",
    "lat": 50.851679,
    "long": 0.522713
  },
  {
    "town": "Huish Episcopi",
    "stationReference": "52120",
    "riverName": "River Yeo",
    "catchmentName": "Parrett, Brue and West Somerset Streams",
    "datumOffset": 5,
    "dateOpened": "1992-11-01",
    "lat": 51.031669,
    "long": -2.798991
  },
  {
    "town": "High Ongar",
    "stationReference": "5420TH",
    "riverName": "River Roding",
    "catchmentName": "Rodding",
    "datumOffset": null,
    "dateOpened": "1963-01-01",
    "lat": 51.713888,
    "long": 0.259177
  },
  {
    "town": "Warenford",
    "stationReference": "021040",
    "riverName": "Waren Burn",
    "catchmentName": "Till",
    "datumOffset": null,
    "dateOpened": "2004-12-09",
    "lat": 55.550443,
    "long": -1.784723
  },
  {
    "town": "Miller Bridge",
    "stationReference": "735022",
    "riverName": "River Rothay",
    "catchmentName": "South Cumbria",
    "datumOffset": null,
    "dateOpened": "1976-01-01",
    "lat": 54.429259,
    "long": -2.970683
  },
  {
    "town": "Gloucester",
    "stationReference": "2662",
    "riverName": "River Twyver",
    "catchmentName": "Severn Vale",
    "datumOffset": null,
    "dateOpened": "2007-11-14",
    "lat": 51.840929,
    "long": -2.202237
  },
  {
    "town": "Wansford",
    "stationReference": "E2105",
    "riverName": "River Nene",
    "catchmentName": "Nene",
    "datumOffset": 8.03,
    "dateOpened": "1996-01-01",
    "lat": 52.584341,
    "long": -0.404444
  },
  {
    "town": "Bekesbourne",
    "stationReference": "E4060",
    "riverName": "Nailbourne",
    "catchmentName": "Stour",
    "datumOffset": 16.283,
    "dateOpened": "2003-01-01",
    "lat": 51.258144,
    "long": 1.145929
  },
  {
    "town": "West Farleigh",
    "stationReference": "E642",
    "riverName": "River Medway",
    "catchmentName": "Medway",
    "datumOffset": null,
    "dateOpened": "1970-01-01",
    "lat": 51.250834,
    "long": 0.447181
  },
  {
    "town": "Thetford",
    "stationReference": "E24319",
    "riverName": "River Thet",
    "catchmentName": "Cam and Ely Ouse (Including South Level)",
    "datumOffset": 9.7,
    "dateOpened": "1997-03-01",
    "lat": 52.415589,
    "long": 0.734272
  },
  {
    "town": "Wanstead",
    "stationReference": "5480TH",
    "riverName": "River Roding",
    "catchmentName": "Rodding",
    "datumOffset": null,
    "dateOpened": "1981-01-01",
    "lat": 51.576239,
    "long": 0.040575
  },
  {
    "town": "Lechlade On Thames",
    "stationReference": "0701TH",
    "riverName": "River Thames",
    "catchmentName": "Cotswolds",
    "datumOffset": null,
    "dateOpened": "1995-01-01",
    "lat": 51.68931,
    "long": -1.678796
  },
  {
    "town": "Brabling Green",
    "stationReference": "E24815",
    "riverName": "River Ore",
    "catchmentName": "East Suffolk",
    "datumOffset": 26.6,
    "dateOpened": "2000-02-01",
    "lat": 52.230723,
    "long": 1.344041
  },
  {
    "town": "Ludlow",
    "stationReference": "2625",
    "riverName": "River Teme",
    "catchmentName": "Teme",
    "datumOffset": null,
    "dateOpened": "2002-05-15",
    "lat": 52.36409,
    "long": -2.706474
  },
  {
    "town": "Stanhope",
    "stationReference": "024003",
    "riverName": "River Wear",
    "catchmentName": "Wear",
    "datumOffset": null,
    "dateOpened": "1958-01-01",
    "lat": 54.745941,
    "long": -2.026369
  },
  {
    "town": "Low Moor",
    "stationReference": "710301",
    "riverName": "River Ribble",
    "catchmentName": "Ribble Douglas and Crossens",
    "datumOffset": null,
    "dateOpened": "1995-01-01",
    "lat": 53.872754,
    "long": -2.414398
  },
  {
    "town": "Felldownhead",
    "stationReference": "47123",
    "riverName": "River Tamar",
    "catchmentName": "Tamar",
    "datumOffset": null,
    "dateOpened": "1997-01-01",
    "lat": 50.60014,
    "long": -4.3068
  },
  {
    "town": "Old Woking",
    "stationReference": "3085TH",
    "riverName": "River Wey",
    "catchmentName": "Wey",
    "datumOffset": null,
    "dateOpened": "2012-03-14",
    "lat": 51.302063,
    "long": -0.543308
  },
  {
    "town": "Bampton",
    "stationReference": "0913TH",
    "riverName": "Shill Brook",
    "catchmentName": "Cotswolds",
    "datumOffset": null,
    "dateOpened": "2009-06-09",
    "lat": 51.72466,
    "long": -1.54887
  },
  {
    "town": "Laceby",
    "stationReference": "E1742",
    "riverName": "Laceby Beck",
    "catchmentName": "Grimsby and Ancholme",
    "datumOffset": 0.01,
    "dateOpened": "1988-01-01",
    "lat": 53.546656,
    "long": -0.159656
  },
  {
    "town": "Ousden",
    "stationReference": "E23956",
    "riverName": "River Kennett",
    "catchmentName": "Cam and Ely Ouse (Including South Level)",
    "datumOffset": 55.9,
    "dateOpened": "1993-03-01",
    "lat": 52.206315,
    "long": 0.520869
  },
  {
    "town": "Huddersfield",
    "stationReference": "F1003",
    "riverName": "River Holme",
    "catchmentName": "Aire and Calder",
    "datumOffset": null,
    "dateOpened": "1979-11-16",
    "lat": 53.638515,
    "long": -1.7867
  },
  {
    "town": "Ifield",
    "stationReference": "3207TH",
    "riverName": "Ifield Brook",
    "catchmentName": "Mole",
    "datumOffset": null,
    "dateOpened": "2004-01-01",
    "lat": 51.11607,
    "long": -0.222649
  },
  {
    "town": "Urmston",
    "stationReference": "692726",
    "riverName": "River Mersey",
    "catchmentName": "Upper Mersey",
    "datumOffset": null,
    "dateOpened": "1976-06-01",
    "lat": 53.438308,
    "long": -2.344072
  },
  {
    "town": "Bournemouth",
    "stationReference": "E71939",
    "riverName": "Tide",
    "catchmentName": "England - South Coast",
    "datumOffset": null,
    "dateOpened": "2011-10-01",
    "lat": 50.714331,
    "long": -1.874873
  },
  {
    "town": "Major's Green",
    "stationReference": "4172",
    "riverName": "River Cole",
    "catchmentName": "Tame Anker and Mease",
    "datumOffset": null,
    "dateOpened": "2002-01-28",
    "lat": 52.397668,
    "long": -1.853805
  },
  {
    "town": "Huntington",
    "stationReference": "F2470",
    "riverName": "River Foss",
    "catchmentName": "Swale, Ure, Nidd and Upper Ouse",
    "datumOffset": null,
    "dateOpened": "1988-06-07",
    "lat": 53.981457,
    "long": -1.067671
  },
  {
    "town": "Wendlebury",
    "stationReference": "1486TH",
    "riverName": "Wendlebury Brook",
    "catchmentName": "Cherwell Thame and Wye",
    "datumOffset": null,
    "dateOpened": "2006-01-01",
    "lat": 51.874246,
    "long": -1.18499
  },
  {
    "town": "East Lyng",
    "stationReference": "52158",
    "riverName": "Saltmoor Main Drain",
    "catchmentName": "Parrett, Brue and West Somerset Streams",
    "datumOffset": null,
    "dateOpened": "1998-01-01",
    "lat": 51.059531,
    "long": -2.940994
  },
  {
    "town": "Ewell",
    "stationReference": "3350TH",
    "riverName": "Hogsmill River",
    "catchmentName": "London",
    "datumOffset": null,
    "dateOpened": "1988-01-01",
    "lat": 51.355767,
    "long": -0.255182
  },
  {
    "town": "Three Elms",
    "stationReference": "055031_TG 329",
    "riverName": "Yazor Brook",
    "catchmentName": "Wye",
    "datumOffset": null,
    "dateOpened": "1973-02-01",
    "lat": 52.069153,
    "long": -2.743532
  },
  {
    "town": "Chertsey",
    "stationReference": "2936TH",
    "riverName": "Chertsey Bourne",
    "catchmentName": "Bournes",
    "datumOffset": null,
    "dateOpened": "1997-01-01",
    "lat": 51.389272,
    "long": -0.506291
  },
  {
    "town": "Boultham",
    "stationReference": "E1594",
    "riverName": "River Witham",
    "catchmentName": "Witham",
    "datumOffset": 4.06,
    "dateOpened": "1984-01-01",
    "lat": 53.202079,
    "long": -0.553771
  },
  {
    "town": "Bainbridge",
    "stationReference": "L2208",
    "riverName": "River Ure",
    "catchmentName": "Swale, Ure, Nidd and Upper Ouse",
    "datumOffset": null,
    "dateOpened": "1996-03-31",
    "lat": 54.311836,
    "long": -2.102939
  },
  {
    "town": "Chobham",
    "stationReference": "2966TH",
    "riverName": "Mill Bourne",
    "catchmentName": "Bournes",
    "datumOffset": null,
    "dateOpened": "1997-01-01",
    "lat": 51.349005,
    "long": -0.602519
  },
  {
    "town": "Low Coniscliffe",
    "stationReference": "F3501",
    "riverName": "River Tees",
    "catchmentName": "Tees",
    "datumOffset": null,
    "dateOpened": "1956-10-01",
    "lat": 54.517925,
    "long": -1.601411
  },
  {
    "town": "Winterbourne Monkton",
    "stationReference": "2204TH",
    "riverName": "River Kennet",
    "catchmentName": "Vale of White Horse",
    "datumOffset": null,
    "dateOpened": "2006-01-01",
    "lat": 51.450901,
    "long": -1.859793
  },
  {
    "town": "Liversedge",
    "stationReference": "L1386",
    "riverName": "Lands Beck",
    "catchmentName": "Aire and Calder",
    "datumOffset": null,
    "dateOpened": "2009-02-11",
    "lat": 53.70985,
    "long": -1.690136
  },
  {
    "town": "Pentewan",
    "stationReference": "48145",
    "riverName": "St Austell River",
    "catchmentName": "Fal and St Austell Streams",
    "datumOffset": null,
    "dateOpened": "2004-05-17",
    "lat": 50.292259,
    "long": -4.781629
  },
  {
    "town": "North Cheam",
    "stationReference": "4045TH",
    "riverName": "Pyl Brook",
    "catchmentName": "London",
    "datumOffset": null,
    "dateOpened": "2000-01-01",
    "lat": 51.374843,
    "long": -0.208335
  },
  {
    "town": "Bagnor",
    "stationReference": "2264TH",
    "riverName": "Winterbourne Stream",
    "catchmentName": "Vale of White Horse",
    "datumOffset": null,
    "dateOpened": "1986-01-01",
    "lat": 51.422436,
    "long": -1.350461
  },
  {
    "town": "Hertford",
    "stationReference": "4890TH",
    "riverName": "River Beane",
    "catchmentName": "Beane",
    "datumOffset": null,
    "dateOpened": "1981-01-01",
    "lat": 51.801234,
    "long": -0.079759
  },
  {
    "town": "Tregony",
    "stationReference": "48108",
    "riverName": "River Fal",
    "catchmentName": "Fal and St Austell Streams",
    "datumOffset": null,
    "dateOpened": "1978-06-08",
    "lat": 50.266031,
    "long": -4.918599
  },
  {
    "town": "East Farleigh",
    "stationReference": "E670",
    "riverName": "River Medway",
    "catchmentName": "Medway",
    "datumOffset": 3.991,
    "dateOpened": "1998-01-01",
    "lat": 51.254622,
    "long": 0.485076
  },
  {
    "town": "Ranworth",
    "stationReference": "E21226",
    "riverName": "River Bure",
    "catchmentName": "Broadland Rivers",
    "datumOffset": null,
    "dateOpened": "1996-08-06",
    "lat": 52.678328,
    "long": 1.487896
  },
  {
    "town": "Taunton Market",
    "stationReference": "52111",
    "riverName": "River Tone",
    "catchmentName": "Parrett, Brue and West Somerset Streams",
    "datumOffset": null,
    "dateOpened": "1998-01-01",
    "lat": 51.020017,
    "long": -3.100618
  },
  {
    "town": "Honiton",
    "stationReference": "45233",
    "riverName": "The Gissage",
    "catchmentName": "Otter, Sid, Axe and Lim",
    "datumOffset": null,
    "dateOpened": "2009-08-13",
    "lat": 50.798774,
    "long": -3.194372
  },
  {
    "town": "Darlington",
    "stationReference": "L3503",
    "riverName": "River Skerne",
    "catchmentName": "Tees",
    "datumOffset": null,
    "dateOpened": "1998-01-31",
    "lat": 54.533026,
    "long": -1.55104
  },
  {
    "town": "Longford",
    "stationReference": "2893TH",
    "riverName": "River Colne",
    "catchmentName": "Colne (Lower)",
    "datumOffset": null,
    "dateOpened": "1988-01-01",
    "lat": 51.466242,
    "long": -0.501779
  },
  {
    "town": "Peterchurch",
    "stationReference": "PCHURCH_TG 342",
    "riverName": "River Dore",
    "catchmentName": "Wye",
    "datumOffset": null,
    "dateOpened": "1999-01-01",
    "lat": 52.041372,
    "long": -2.955501
  },
  {
    "town": "Ferrybridge",
    "stationReference": "L1808",
    "riverName": "River Aire",
    "catchmentName": "Aire and Calder",
    "datumOffset": null,
    "dateOpened": "1996-03-31",
    "lat": 53.713759,
    "long": -1.26662
  },
  {
    "town": "Bromley",
    "stationReference": "4310TH",
    "riverName": "River Ravensbourne",
    "catchmentName": "London",
    "datumOffset": null,
    "dateOpened": "1988-01-01",
    "lat": 51.392901,
    "long": 0.019484
  },
  {
    "town": "Leeds",
    "stationReference": "L17012",
    "riverName": "Wyke Beck",
    "catchmentName": "Aire and Calder",
    "datumOffset": null,
    "dateOpened": "2012-06-19",
    "lat": 53.800865,
    "long": -1.480337
  },
  {
    "town": "Burstwick",
    "stationReference": "F3316",
    "riverName": "Burstwick Drain",
    "catchmentName": "Hull and East Riding",
    "datumOffset": null,
    "dateOpened": "2001-03-02",
    "lat": 53.739921,
    "long": -0.144398
  },
  {
    "town": "Alton",
    "stationReference": "3012TH",
    "riverName": "River Wey",
    "catchmentName": "Wey",
    "datumOffset": null,
    "dateOpened": "1991-01-01",
    "lat": 51.150372,
    "long": -0.96697
  },
  {
    "town": "Cheltenham",
    "stationReference": "2653",
    "riverName": "Hatherley Brook",
    "catchmentName": "Severn Vale",
    "datumOffset": null,
    "dateOpened": "2007-01-05",
    "lat": 51.88594,
    "long": -2.093645
  },
  {
    "town": "Newton-On-Rawcliffe",
    "stationReference": "L2519",
    "riverName": "Pickering Beck",
    "catchmentName": "Derwent",
    "datumOffset": null,
    "dateOpened": "1998-11-24",
    "lat": 54.308919,
    "long": -0.746353
  },
  {
    "town": "Newport Pagnell",
    "stationReference": "E21449",
    "riverName": "River Great Ouse",
    "catchmentName": "Upper and Bedford Ouse",
    "datumOffset": 52,
    "dateOpened": "1987-09-30",
    "lat": 52.087826,
    "long": -0.717093
  },
  {
    "town": "Catford",
    "stationReference": "4370TH",
    "riverName": "River Ravensbourne",
    "catchmentName": "London",
    "datumOffset": null,
    "dateOpened": "1984-01-01",
    "lat": 51.441442,
    "long": -0.026869
  },
  {
    "town": "Lincoln",
    "stationReference": "E1608",
    "riverName": "River Witham",
    "catchmentName": "Witham",
    "datumOffset": 4.12,
    "dateOpened": "1984-01-01",
    "lat": 53.229862,
    "long": -0.546842
  },
  {
    "town": "Culham",
    "stationReference": "1800TH",
    "riverName": "River Thames",
    "catchmentName": "Vale of White Horse",
    "datumOffset": null,
    "dateOpened": "1983-01-01",
    "lat": 51.647821,
    "long": -1.254167
  },
  {
    "town": "Callow End",
    "stationReference": "2616",
    "riverName": "River Severn",
    "catchmentName": "Severn Vale",
    "datumOffset": null,
    "dateOpened": "2002-11-01",
    "lat": 52.158602,
    "long": -2.219449
  },
  {
    "town": "Bodiam",
    "stationReference": "E5852",
    "riverName": "River Rother",
    "catchmentName": "Rother",
    "datumOffset": 2.225,
    "dateOpened": "1967-01-01",
    "lat": 50.991816,
    "long": 0.524378
  },
  {
    "town": "Hurst Green",
    "stationReference": "713056",
    "riverName": "River Ribble",
    "catchmentName": "Ribble Douglas and Crossens",
    "datumOffset": null,
    "dateOpened": "1978-01-01",
    "lat": 53.833695,
    "long": -2.453518
  },
  {
    "town": "Edmonton",
    "stationReference": "5369TH",
    "riverName": "Pymmes Brook",
    "catchmentName": "Lower Lee",
    "datumOffset": null,
    "dateOpened": "1984-01-01",
    "lat": 51.615727,
    "long": -0.065253
  },
  {
    "town": "Hollins",
    "stationReference": "690205",
    "riverName": "River Roch",
    "catchmentName": "Northern Manchester",
    "datumOffset": null,
    "dateOpened": "1976-01-01",
    "lat": 53.5659,
    "long": -2.293017
  },
  {
    "town": "Brant Broughton",
    "stationReference": "E2815",
    "riverName": "River Brant",
    "catchmentName": "Witham",
    "datumOffset": null,
    "dateOpened": "1989-01-01",
    "lat": 53.080542,
    "long": -0.614579
  },
  {
    "town": "Bolton Percy",
    "stationReference": "L2013",
    "riverName": "River Wharfe",
    "catchmentName": "Swale, Ure, Nidd and Upper Ouse",
    "datumOffset": null,
    "dateOpened": "1998-04-15",
    "lat": 53.863248,
    "long": -1.192116
  },
  {
    "town": "Newick",
    "stationReference": "E8221",
    "riverName": "River Ouse",
    "catchmentName": "Ouse",
    "datumOffset": null,
    "dateOpened": "1992-07-20",
    "lat": 50.975187,
    "long": 0.034071
  },
  {
    "town": "Samlesbury",
    "stationReference": "713019",
    "riverName": "River Ribble",
    "catchmentName": "Ribble Douglas and Crossens",
    "datumOffset": null,
    "dateOpened": "1975-01-01",
    "lat": 53.76911,
    "long": -2.624715
  },
  {
    "town": "Rickmansworth",
    "stationReference": "2859TH",
    "riverName": "River Chess",
    "catchmentName": "Colne (Upper)",
    "datumOffset": null,
    "dateOpened": "1985-01-01",
    "lat": 51.641989,
    "long": -0.46125
  },
  {
    "town": "Lancaster",
    "stationReference": "724735",
    "riverName": "River Lune",
    "catchmentName": "Lune and Wyre",
    "datumOffset": null,
    "dateOpened": "1992-01-01",
    "lat": 54.051851,
    "long": -2.822021
  },
  {
    "town": "Repps",
    "stationReference": "E24064",
    "riverName": "River Thurne",
    "catchmentName": "Broadland Rivers",
    "datumOffset": null,
    "dateOpened": "1992-01-01",
    "lat": 52.70167,
    "long": 1.571118
  },
  {
    "town": "Cowley",
    "stationReference": "2889TH",
    "riverName": "River Pinn",
    "catchmentName": "Pinn",
    "datumOffset": null,
    "dateOpened": "1984-01-01",
    "lat": 51.533611,
    "long": -0.47115
  },
  {
    "town": "Charles",
    "stationReference": "50133",
    "riverName": "River Bray",
    "catchmentName": "Taw and North Devon Streams",
    "datumOffset": null,
    "dateOpened": "1997-01-01",
    "lat": 51.076717,
    "long": -3.866807
  },
  {
    "town": "Stanmore",
    "stationReference": "3823TH",
    "riverName": "Edgware Brook",
    "catchmentName": "Brent (Brooks)",
    "datumOffset": null,
    "dateOpened": "1999-01-01",
    "lat": 51.610531,
    "long": -0.313052
  },